Name,Latitud,Longitud,Tipos
dsf4,40.4345051,-3.699849599999999,"['airport', 'point_of_interest', 'establishment']"
Mixturas Gastro Bar,40.44813610000001,-3.7001496,"['bar', 'restaurant', 'food', 'point_of_interest', 'establishment']"
La Bohemia Paraguaya,40.4474229,-3.702442,"['bar', 'restaurant', 'food', 'point_of_interest', 'establishment']"
Willy´S Bar Hamburgueseria,40.4472992,-3.7018623,"['meal_delivery', 'meal_takeaway', 'bar', 'restaurant', 'food', 'point_of_interest', 'establishment']"
Griselda Aguilera Fernández,40.4472566,-3.7018904,"['bar', 'point_of_interest', 'establishment']"
La_Esquina 23,40.44737680000001,-3.7019096,"['bar', 'liquor_store', 'restaurant', 'food', 'point_of_interest', 'store', 'establishment']"
El Castillo,40.447357,-3.700643099999999,"['bar', 'point_of_interest', 'establishment']"
Bar Py,40.4473276,-3.702380999999999,"['bar', 'point_of_interest', 'establishment']"
Tu Rincón,40.446545,-3.7019439,"['bar', 'point_of_interest', 'establishment']"
Bar Encuentro,40.44656,-3.701993,"['bar', 'point_of_interest', 'establishment']"
Bar Roclana Tapas y Raciones,40.44656,-3.701993,"['bar', 'point_of_interest', 'establishment']"
"""La Esquinita de Treviño"" Cafetería - Cervecería",40.44656,-3.701993,"['cafe', 'bar', 'food', 'point_of_interest', 'establishment']"
El Bar,40.4469571,-3.7002443,"['bar', 'point_of_interest', 'establishment']"
Bar Casita,40.4468941,-3.7001936,"['bar', 'point_of_interest', 'establishment']"
La terraza de Dulcinea,40.4469032,-3.7001767,"['bar', 'point_of_interest', 'establishment']"
Bar tinin,40.44835399999999,-3.7019023,"['bar', 'point_of_interest', 'establishment']"
Taberna de Paco,40.4482902,-3.7021091,"['bar', 'point_of_interest', 'establishment']"
Cafetería Tinin,40.44838319999999,-3.7018093,"['bar', 'restaurant', 'food', 'point_of_interest', 'establishment']"
El Refugio Bar Cerveceria,40.4482489,-3.7027218,"['bar', 'restaurant', 'food', 'point_of_interest', 'establishment']"
bar 2 Amig@s,40.4460627,-3.7002861,"['bar', 'point_of_interest', 'establishment']"
Low Cost.Come,40.4470282,-3.7033401,"['bakery', 'bar', 'liquor_store', 'restaurant', 'food', 'point_of_interest', 'store', 'establishment']"
Norte Sur Bravo Murillo (Chamberí),40.4463895,-3.7041686,"['bar', 'restaurant', 'food', 'point_of_interest', 'establishment']"
100 Montaditos,40.4474922,-3.703704299999999,"['bar', 'food', 'point_of_interest', 'establishment']"
La Quinta Lounge Bar,40.4460352,-3.704215600000001,"['bar', 'restaurant', 'food', 'point_of_interest', 'establishment']"
Lizarran,40.4459976,-3.7041846,"['cafe', 'bar', 'restaurant', 'food', 'point_of_interest', 'establishment']"
La Bohemia Paraguaya,40.4474229,-3.702442,"['bar', 'restaurant', 'food', 'point_of_interest', 'establishment']"
Bar Rubí,40.4473977,-3.7042338,"['bar', 'night_club', 'point_of_interest', 'establishment']"
Tres Cuñados Bar Cafeteria,40.44771739999999,-3.7044127,"['bar', 'point_of_interest', 'establishment']"
HEREDEROS DE FRANCISCO ESTIRADO BLAZQUEZ C.B.,40.44752940000001,-3.7048414,"['bar', 'point_of_interest', 'establishment']"
Low Cost.Come,40.4470282,-3.7033401,"['bakery', 'bar', 'liquor_store', 'restaurant', 'food', 'point_of_interest', 'store', 'establishment']"
Restaurante los Pinetes,40.447605,-3.7051098,"['bar', 'restaurant', 'food', 'point_of_interest', 'establishment']"
Chicken & Paella,40.4472668,-3.7054769,"['meal_delivery', 'bar', 'restaurant', 'food', 'point_of_interest', 'store', 'establishment']"
Tierra Burrito Bar,40.4480876,-3.7049816,"['bar', 'restaurant', 'food', 'point_of_interest', 'establishment']"
Cervecería Rubí,40.448408,-3.703959200000001,"['bar', 'restaurant', 'food', 'point_of_interest', 'establishment']"
El rincón de Hernani,40.44825429999999,-3.7032366,"['bar', 'restaurant', 'food', 'point_of_interest', 'establishment']"
Bar Restaurante Viba,40.4484012,-3.7032825,"['restaurant', 'bar', 'food', 'point_of_interest', 'establishment']"
Los Morales,40.4484038,-3.7032581,"['bar', 'point_of_interest', 'establishment']"
Cafe-Bar Martinez,40.44774779999999,-3.7059413,"['bar', 'point_of_interest', 'establishment']"
Bar Py,40.4473276,-3.702380999999999,"['bar', 'point_of_interest', 'establishment']"
Bar La Felicidad,40.44684709999999,-3.7071669,"['bar', 'point_of_interest', 'establishment']"
BAR MADRID ROLLER,40.4474996,-3.706834599999999,"['bar', 'meal_delivery', 'meal_takeaway', 'restaurant', 'food', 'point_of_interest', 'establishment']"
Madrid Roller,40.44750860000001,-3.7068196,"['bar', 'point_of_interest', 'establishment']"
Alberto Fernández Rodríguez,40.446845,-3.707208,"['bar', 'restaurant', 'food', 'point_of_interest', 'establishment']"
Cafe-Bar Martinez,40.44774779999999,-3.7059413,"['bar', 'point_of_interest', 'establishment']"
Chicken & Paella,40.4472668,-3.7054769,"['meal_delivery', 'bar', 'restaurant', 'food', 'point_of_interest', 'store', 'establishment']"
Lecumberri,40.44676409999999,-3.7100909,"['bar', 'point_of_interest', 'establishment']"
Bar SANTA ELENA,40.4474265,-3.7107534,"['bar', 'cafe', 'food', 'point_of_interest', 'establishment']"
Epic Board Game Cafe,40.44724209999999,-3.7106795,"['cafe', 'bar', 'restaurant', 'food', 'point_of_interest', 'store', 'establishment']"
Herjomar,40.4471154,-3.7102642,"['bar', 'point_of_interest', 'establishment']"
Bar Manolo,40.4472387,-3.709891999999999,"['bar', 'point_of_interest', 'establishment']"
El Barril del Tapeo,40.447145,-3.7101482,"['bar', 'point_of_interest', 'establishment']"
Cafetería El Cantaro,40.44724209999999,-3.7106795,"['bar', 'cafe', 'liquor_store', 'restaurant', 'food', 'point_of_interest', 'store', 'establishment']"
Bar El Filón de Caña,40.44765469999999,-3.7106475,"['bar', 'point_of_interest', 'establishment']"
Cerveceria Los Rotos,40.44661370000001,-3.7107489,"['bar', 'point_of_interest', 'establishment']"
Bar Cafeteria,40.4464609,-3.710637599999999,"['bar', 'point_of_interest', 'establishment']"
"Bar Cafeteria ""Manduka""",40.4463654,-3.711163400000001,"['bar', 'cafe', 'food', 'point_of_interest', 'store', 'establishment']"
Bar Labaña,40.44818,-3.711095999999999,"['bar', 'point_of_interest', 'establishment']"
José Manuel Ramírez Pozo,40.44818,-3.711095999999999,"['bar', 'point_of_interest', 'establishment']"
Bar SANTA ELENA,40.4474265,-3.7107534,"['bar', 'cafe', 'food', 'point_of_interest', 'establishment']"
Epic Board Game Cafe,40.44724209999999,-3.7106795,"['cafe', 'bar', 'restaurant', 'food', 'point_of_interest', 'store', 'establishment']"
Cafetería Cervecería Los Estudiantes,40.44683850000001,-3.712652800000001,"['cafe', 'bar', 'restaurant', 'food', 'point_of_interest', 'store', 'establishment']"
Sidrería Casa Lulo | Restaurante Asturiano,40.4467277,-3.7117925,"['bar', 'restaurant', 'food', 'point_of_interest', 'establishment']"
Tapas La Vuelta Bar,40.44631979999999,-3.7133939,"['bar', 'point_of_interest', 'establishment']"
Taberna la Tortuga,40.4467848,-3.714322,"['bar', 'restaurant', 'food', 'point_of_interest', 'establishment']"
"Bar Cafeteria ""Manduka""",40.4463654,-3.711163400000001,"['bar', 'cafe', 'food', 'point_of_interest', 'store', 'establishment']"
Café - Bar Al Punto,40.44584979999999,-3.7121838,"['bar', 'point_of_interest', 'establishment']"
Cafetería El Cantaro,40.44724209999999,-3.7106795,"['bar', 'cafe', 'liquor_store', 'restaurant', 'food', 'point_of_interest', 'store', 'establishment']"
Bar Labaña,40.44818,-3.711095999999999,"['bar', 'point_of_interest', 'establishment']"
José Manuel Ramírez Pozo,40.44818,-3.711095999999999,"['bar', 'point_of_interest', 'establishment']"
Campus,40.4474778,-3.717200999999999,"['bar', 'point_of_interest', 'establishment']"
Cabala,40.44820319999999,-3.7159438,"['bar', 'point_of_interest', 'establishment']"
Espit Chupitos,40.4473302,-3.7173058,"['bar', 'point_of_interest', 'establishment']"
Taberna Vikinga,40.4467821,-3.7145974,"['bar', 'point_of_interest', 'establishment']"
Estalaya,40.4478574,-3.7163347,"['bar', 'point_of_interest', 'establishment']"
Taberna la Tortuga,40.4467848,-3.714322,"['bar', 'restaurant', 'food', 'point_of_interest', 'establishment']"
Bar Terraza La Hacienda,40.4463442,-3.7144371,"['bar', 'point_of_interest', 'establishment']"
La Copita,40.4473607,-3.717344299999999,"['bar', 'point_of_interest', 'establishment']"
Campus,40.4474778,-3.717200999999999,"['bar', 'point_of_interest', 'establishment']"
Espit Chupitos,40.4473302,-3.7173058,"['bar', 'point_of_interest', 'establishment']"
La Copita,40.4473607,-3.717344299999999,"['bar', 'point_of_interest', 'establishment']"
Charlotte,40.44514040000001,-3.703364,"['bar', 'restaurant', 'food', 'point_of_interest', 'establishment']"
La Antigua de Chamberí,40.44540939999999,-3.702238299999999,"['bar', 'restaurant', 'food', 'point_of_interest', 'establishment']"
El 21 Cafe Bar,40.4453366,-3.7002081,"['bar', 'point_of_interest', 'establishment']"
La Iguana Bar De Copas,40.44532239999999,-3.700019,"['bar', 'point_of_interest', 'establishment']"
The cocktail bar Plomez,40.4459392,-3.7002954,"['bar', 'point_of_interest', 'establishment']"
bar 2 Amig@s,40.4460627,-3.7002861,"['bar', 'point_of_interest', 'establishment']"
Bar La Gallega,40.4446441,-3.703134700000001,"['restaurant', 'bar', 'liquor_store', 'food', 'point_of_interest', 'store', 'establishment']"
Bar Casa de domingo,40.4440973,-3.7002331,"['bar', 'point_of_interest', 'establishment']"
Bogar Madrid,40.4453032,-3.6996245,"['bar', 'point_of_interest', 'establishment']"
Cueva de bandoleros,40.4452782,-3.6996097,"['bar', 'point_of_interest', 'establishment']"
Tu Rincón,40.446545,-3.7019439,"['bar', 'point_of_interest', 'establishment']"
Suéltate el pelo,40.4444158,-3.7032002,"['bar', 'point_of_interest', 'establishment']"
Norte Sur Bravo Murillo (Chamberí),40.4463895,-3.7041686,"['bar', 'restaurant', 'food', 'point_of_interest', 'establishment']"
Meigadas,40.4455556,-3.7036111,"['bar', 'restaurant', 'food', 'point_of_interest', 'store', 'establishment']"
Charlotte,40.44514040000001,-3.703364,"['bar', 'restaurant', 'food', 'point_of_interest', 'establishment']"
Lizarran,40.4459976,-3.7041846,"['cafe', 'bar', 'restaurant', 'food', 'point_of_interest', 'establishment']"
La Quinta Lounge Bar,40.4460352,-3.704215600000001,"['bar', 'restaurant', 'food', 'point_of_interest', 'establishment']"
Bar La Gallega,40.4446441,-3.703134700000001,"['restaurant', 'bar', 'liquor_store', 'food', 'point_of_interest', 'store', 'establishment']"
Bar El 84,40.445213,-3.703725,"['bar', 'restaurant', 'food', 'point_of_interest', 'establishment']"
Taberna Nuevo 78,40.4449081,-3.703758,"['restaurant', 'bar', 'food', 'point_of_interest', 'establishment']"
El PRE bar de copas,40.4444788,-3.703385,"['bar', 'point_of_interest', 'establishment']"
Cervecería El Cañonazo,40.444082,-3.703792099999999,"['bar', 'restaurant', 'food', 'point_of_interest', 'establishment']"
Coppola Madrid,40.445546,-3.706458599999999,"['bar', 'point_of_interest', 'establishment']"
New Knave,40.44475560000001,-3.7103611,"['bar', 'point_of_interest', 'establishment']"
Las Estaciones de Juan,40.4447722,-3.710038899999999,"['bar', 'restaurant', 'food', 'point_of_interest', 'establishment']"
Cervecería Brocal,40.4448584,-3.7099568,"['bar', 'food', 'point_of_interest', 'establishment']"
Knave,40.4448584,-3.7099568,"['bar', 'point_of_interest', 'establishment']"
2.1 Bar,40.444814,-3.709718,"['bar', 'point_of_interest', 'establishment']"
Masters y Margaritas,40.4448139,-3.7097175,"['bar', 'restaurant', 'food', 'point_of_interest', 'establishment']"
3T Sport Bar & Drinks,40.4447512,-3.7097149,"['bar', 'point_of_interest', 'establishment']"
.,40.4448885,-3.71035,"['night_club', 'bar', 'point_of_interest', 'establishment']"
Bar Cafeteria,40.4464609,-3.710637599999999,"['bar', 'point_of_interest', 'establishment']"
Café - Bar Al Punto,40.44584979999999,-3.7121838,"['bar', 'point_of_interest', 'establishment']"
Tapas La Vuelta Bar,40.44631979999999,-3.7133939,"['bar', 'point_of_interest', 'establishment']"
Bar Terraza La Hacienda,40.4463442,-3.7144371,"['bar', 'point_of_interest', 'establishment']"
Gochu Santa Engracia,40.4434675,-3.7026377,"['bar', 'restaurant', 'food', 'point_of_interest', 'establishment']"
Bar Huete Comidas Y Tapas,40.4428571,-3.7018904,"['bar', 'point_of_interest', 'establishment']"
Bar Cervecería,40.4428571,-3.7018904,"['bar', 'point_of_interest', 'establishment']"
Zalber,40.442868,-3.7019215,"['bar', 'restaurant', 'food', 'point_of_interest', 'establishment']"
Cerveceria Zalher,40.4428158,-3.701915999999999,"['bar', 'point_of_interest', 'establishment']"
Huete Cerveceria,40.44276349999999,-3.7018803,"['bar', 'point_of_interest', 'establishment']"
Encascarados,40.4434851,-3.7025998,"['bar', 'restaurant', 'food', 'point_of_interest', 'establishment']"
Sotoverde,40.443811,-3.702779799999999,"['bar', 'point_of_interest', 'establishment']"
Cafetería La Mina,40.4431362,-3.699584099999999,"['bar', 'point_of_interest', 'establishment']"
Bar Casa de domingo,40.4440973,-3.7002331,"['bar', 'point_of_interest', 'establishment']"
Restaurante Si Señor,40.4422308,-3.702992200000001,"['bar', 'restaurant', 'food', 'point_of_interest', 'establishment']"
Dime que me Quieres,40.44345249999999,-3.705460299999999,"['night_club', 'bar', 'point_of_interest', 'establishment']"
Gochu Santa Engracia,40.4434675,-3.7026377,"['bar', 'restaurant', 'food', 'point_of_interest', 'establishment']"
Taberna Rios Rosas,40.44192890000001,-3.703289000000001,"['bar', 'point_of_interest', 'establishment']"
Roan Y Mape S L,40.44266289999999,-3.7038754,"['bar', 'point_of_interest', 'establishment']"
Cervecería El Cañonazo,40.444082,-3.703792099999999,"['bar', 'restaurant', 'food', 'point_of_interest', 'establishment']"
Restaurante Si Señor,40.4422308,-3.702992200000001,"['bar', 'restaurant', 'food', 'point_of_interest', 'establishment']"
Encascarados,40.4434851,-3.7025998,"['bar', 'restaurant', 'food', 'point_of_interest', 'establishment']"
Sotoverde,40.443811,-3.702779799999999,"['bar', 'point_of_interest', 'establishment']"
Gran Sol,40.4419309,-3.7029939,"['bar', 'point_of_interest', 'establishment']"
Lampaza S C,40.44192789999999,-3.7029414,"['bar', 'point_of_interest', 'establishment']"
Söttgodis RR,40.44192799999999,-3.702941,"['bar', 'point_of_interest', 'establishment']"
Akhes Bar de Copas y Coktelería desde 1988,40.4431811,-3.7046246,"['bar', 'point_of_interest', 'establishment']"
Dime que me Quieres,40.44345249999999,-3.705460299999999,"['night_club', 'bar', 'point_of_interest', 'establishment']"
Terraza del Parque Santander,40.4429133,-3.7092094,"['bar', 'point_of_interest', 'establishment']"
Kiosko Santander,40.44291279999999,-3.709116,"['bar', 'point_of_interest', 'establishment']"
Cervecería 100 Montaditos,40.4420227,-3.7130877,"['bar', 'restaurant', 'food', 'point_of_interest', 'establishment']"
Ricorda,40.44152529999999,-3.7124588,"['night_club', 'bar', 'point_of_interest', 'establishment']"
Scalini Café,40.4428362,-3.714324,"['bar', 'restaurant', 'food', 'point_of_interest', 'establishment']"
The New Café & Restaurant,40.442925,-3.7127312,"['bar', 'restaurant', 'food', 'point_of_interest', 'establishment']"
vinoseleccion.co.uk,40.4429891,-3.7130643,"['bar', 'food', 'point_of_interest', 'establishment']"
La esquinita iberica,40.4427434,-3.7130501,"['bar', 'point_of_interest', 'establishment']"
Hostelería Hermanos De Cáceres S L,40.4420227,-3.7130877,"['bar', 'point_of_interest', 'establishment']"
Blue Moon Taphouse - Vallehermoso,40.4418503,-3.7133819,"['bar', 'restaurant', 'food', 'point_of_interest', 'establishment']"
Ferros Café Maestro Ángel Llorca,40.4435391,-3.714255600000001,"['cafe', 'bar', 'restaurant', 'food', 'point_of_interest', 'store', 'establishment']"
Scalini Café,40.4428362,-3.714324,"['bar', 'restaurant', 'food', 'point_of_interest', 'establishment']"
After Nine Madrid,40.4436882,-3.714663599999999,"['bar', 'restaurant', 'food', 'point_of_interest', 'establishment']"
Ferros Café Maestro Ángel Llorca,40.4435391,-3.714255600000001,"['cafe', 'bar', 'restaurant', 'food', 'point_of_interest', 'store', 'establishment']"
Ponzano somersault,40.4408126,-3.6994553,"['bar', 'restaurant', 'food', 'point_of_interest', 'establishment']"
Francisco José Bergaz Pérez,40.440861,-3.7008542,"['bar', 'point_of_interest', 'establishment']"
Concept Big Craft,40.44076199999999,-3.700061099999999,"['bar', 'restaurant', 'food', 'point_of_interest', 'establishment']"
Asccuas,40.4397627,-3.7006739,"['bar', 'restaurant', 'food', 'point_of_interest', 'establishment']"
Taberna Gourmet Olivia,40.4418306,-3.702681999999999,"['bar', 'restaurant', 'food', 'point_of_interest', 'establishment']"
Bricks GastroPub,40.4398835,-3.7002443,"['bar', 'point_of_interest', 'establishment']"
Autemax,40.4398835,-3.7002443,"['bar', 'restaurant', 'food', 'point_of_interest', 'establishment']"
Gastrobar La Tata,40.4398835,-3.7002443,"['bar', 'restaurant', 'food', 'point_of_interest', 'establishment']"
Taberna Rios Rosas,40.44192890000001,-3.703289000000001,"['bar', 'point_of_interest', 'establishment']"
RAFAEL FERNANDEZ ROLLON S.L.,40.4416401,-3.705246499999999,"['bar', 'point_of_interest', 'establishment']"
Agr A A Teletrofeo,40.44139759999999,-3.705670700000001,"['bar', 'point_of_interest', 'establishment']"
Gran Sol,40.4419309,-3.7029939,"['bar', 'point_of_interest', 'establishment']"
Lampaza S C,40.44192789999999,-3.7029414,"['bar', 'point_of_interest', 'establishment']"
Söttgodis RR,40.44192799999999,-3.702941,"['bar', 'point_of_interest', 'establishment']"
DARIKU,40.4408931,-3.7073483,"['bar', 'restaurant', 'food', 'point_of_interest', 'establishment']"
El Refugio,40.440736,-3.707756,"['cafe', 'bar', 'food', 'point_of_interest', 'store', 'establishment']"
Lima Limón,40.44037209999999,-3.7083132,"['bar', 'restaurant', 'food', 'point_of_interest', 'establishment']"
Agr A A Teletrofeo,40.44139759999999,-3.705670700000001,"['bar', 'point_of_interest', 'establishment']"
La Hemeroteca,40.4396714,-3.7108006,"['bar', 'point_of_interest', 'establishment']"
Bar las Pedroñeras,40.4401372,-3.7087775,"['bar', 'point_of_interest', 'establishment']"
Lima Limón,40.44037209999999,-3.7083132,"['bar', 'restaurant', 'food', 'point_of_interest', 'establishment']"
Ricorda,40.44152529999999,-3.7124588,"['night_club', 'bar', 'point_of_interest', 'establishment']"
Cervecería 100 Montaditos,40.4420227,-3.7130877,"['bar', 'restaurant', 'food', 'point_of_interest', 'establishment']"
Scrum Rugby Bar,40.4397596,-3.712196899999999,"['bar', 'point_of_interest', 'establishment']"
Blue Moon Taphouse - Vallehermoso,40.4418503,-3.7133819,"['bar', 'restaurant', 'food', 'point_of_interest', 'establishment']"
Hostelería Hermanos De Cáceres S L,40.4420227,-3.7130877,"['bar', 'point_of_interest', 'establishment']"
Scrum pub bar de copas cerveceria,40.4397401,-3.712121099999999,"['bar', 'restaurant', 'food', 'point_of_interest', 'establishment']"
El Muelle de Sfco. 28,40.4411363,-3.7143994,"['bar', 'restaurant', 'food', 'point_of_interest', 'establishment']"
Chamberí Taberna,40.4410943,-3.7144752,"['bar', 'restaurant', 'food', 'point_of_interest', 'establishment']"
Pecaditos San Francisco de Sales,40.440826,-3.7148605,"['bar', 'restaurant', 'food', 'point_of_interest', 'establishment']"
Chamberí Taberna,40.4410943,-3.7144752,"['bar', 'restaurant', 'food', 'point_of_interest', 'establishment']"
TheStillWork,40.4414534,-3.714779999999999,"['bar', 'point_of_interest', 'establishment']"
El Muelle de Sfco. 28,40.4411363,-3.7143994,"['bar', 'restaurant', 'food', 'point_of_interest', 'establishment']"
Ferros Café San Francisco de Sales,40.44010999999999,-3.716683999999999,"['cafe', 'bar', 'restaurant', 'food', 'point_of_interest', 'store', 'establishment']"
Isaac Peral 52,40.4406913,-3.7177895,"['bar', 'cafe', 'liquor_store', 'restaurant', 'food', 'point_of_interest', 'store', 'establishment']"
Tapas y Copas El 52,40.44067899999999,-3.7176092,"['bar', 'restaurant', 'food', 'point_of_interest', 'establishment']"
Cafetería Sicilia,40.43999489999999,-3.7174819,"['bar', 'cafe', 'food', 'point_of_interest', 'store', 'establishment']"
Ferros Café San Francisco de Sales,40.44010999999999,-3.716683999999999,"['cafe', 'bar', 'restaurant', 'food', 'point_of_interest', 'store', 'establishment']"
Cien por Cien Madrid,40.4378861,-3.700824999999999,"['bar', 'point_of_interest', 'establishment']"
Taberna Restaurante Cruz de Mayo,40.4394015,-3.700402800000001,"['bar', 'restaurant', 'food', 'point_of_interest', 'establishment']"
La Traviesa De Chamberi,40.4395542,-3.700512999999999,"['night_club', 'bar', 'restaurant', 'food', 'point_of_interest', 'establishment']"
Lembranzas,40.438636,-3.6997098,"['restaurant', 'bar', 'food', 'point_of_interest', 'establishment']"
Restaurante Casa Patillas,40.4387187,-3.7001687,"['bar', 'restaurant', 'food', 'point_of_interest', 'establishment']"
barcelona city,40.4387208,-3.700575499999999,"['bar', 'point_of_interest', 'establishment']"
Elektra Madrid - Restaurante,40.43924700000001,-3.700402399999999,"['cafe', 'bar', 'restaurant', 'food', 'point_of_interest', 'establishment']"
Classic Motorbar,40.43927900000001,-3.700399499999999,"['bar', 'point_of_interest', 'establishment']"
MotorB,40.4392331,-3.7002439,"['bar', 'point_of_interest', 'establishment']"
Bar Dugu,40.43772939999999,-3.7009918,"['bar', 'point_of_interest', 'establishment']"
Asccuas,40.4397627,-3.7006739,"['bar', 'restaurant', 'food', 'point_of_interest', 'establishment']"
Ladymadrid bar,40.437586,-3.700984499999999,"['bar', 'point_of_interest', 'establishment']"
@ladymadrid.es1,40.437586,-3.700984499999999,"['bar', 'point_of_interest', 'establishment']"
Lunaticos,40.437586,-3.700984499999999,"['bar', 'point_of_interest', 'establishment']"
Bar Restaurante El Camba,40.43750000000001,-3.701000200000001,"['bar', 'restaurant', 'food', 'point_of_interest', 'establishment']"
Bar Los Hermanos,40.4397409,-3.700143,"['bar', 'point_of_interest', 'establishment']"
Bricks GastroPub,40.4398835,-3.7002443,"['bar', 'point_of_interest', 'establishment']"
Autemax,40.4398835,-3.7002443,"['bar', 'restaurant', 'food', 'point_of_interest', 'establishment']"
Gastrobar La Tata,40.4398835,-3.7002443,"['bar', 'restaurant', 'food', 'point_of_interest', 'establishment']"
Claxon Bar,40.4386962,-3.6995306,"['bar', 'point_of_interest', 'establishment']"
Cervecería Sant Yago,40.4397253,-3.6998773,"['bar', 'point_of_interest', 'establishment']"
Gata,40.4397253,-3.6998773,"['bar', 'restaurant', 'food', 'point_of_interest', 'establishment']"
Juice Bar,40.4377246,-3.7044622,"['bar', 'point_of_interest', 'establishment']"
Nevada,40.4385971,-3.7081559,"['bar', 'point_of_interest', 'establishment']"
Vinos y Pintxos,40.4390247,-3.7072212,"['bar', 'restaurant', 'food', 'point_of_interest', 'establishment']"
Marisquería El 79,40.4385183,-3.7084347,"['bar', 'restaurant', 'food', 'point_of_interest', 'establishment']"
Kenny Klose,40.4389116,-3.7070556,"['beauty_salon', 'bar', 'point_of_interest', 'establishment']"
El Recreo - Tapas Bar,40.4390435,-3.707004999999999,"['bar', 'point_of_interest', 'establishment']"
Cervecería El Pasaje,40.43902659999999,-3.7068789,"['bar', 'point_of_interest', 'establishment']"
Rock bar OASIS beach,40.43904339999999,-3.707414799999999,"['night_club', 'bar', 'restaurant', 'food', 'point_of_interest', 'establishment']"
Bar Roan,40.4392647,-3.706613,"['bar', 'point_of_interest', 'establishment']"
SIDRERÍA,40.4383432,-3.7079958,"['bar', 'restaurant', 'food', 'point_of_interest', 'establishment']"
Bar Luján,40.43922999999999,-3.708108299999999,"['bar', 'point_of_interest', 'establishment']"
Sidrería del Norte,40.43826300000001,-3.708184500000001,"['bar', 'point_of_interest', 'establishment']"
Tapa's Bar,40.4394189,-3.7080808,"['bar', 'restaurant', 'food', 'point_of_interest', 'establishment']"
La Esquina del 98,40.43943599999999,-3.708066,"['bar', 'restaurant', 'food', 'point_of_interest', 'establishment']"
baúl BAR,40.4394019,-3.7081076,"['bar', 'restaurant', 'food', 'point_of_interest', 'establishment']"
Bar Cerveceria Los Gallego,40.438329,-3.708448899999999,"['bar', 'point_of_interest', 'establishment']"
Bar Fran,40.4389885,-3.7085409,"['bar', 'restaurant', 'food', 'point_of_interest', 'establishment']"
Jayma,40.4387012,-3.7088358,"['bar', 'point_of_interest', 'establishment']"
La Hemeroteca,40.4396714,-3.7108006,"['bar', 'point_of_interest', 'establishment']"
Restaurante Cervecería La Rasilla,40.4390698,-3.7108733,"['bar', 'restaurant', 'food', 'point_of_interest', 'establishment']"
Destellos,40.43774459999999,-3.709909399999999,"['bar', 'point_of_interest', 'establishment']"
Nevada,40.4385971,-3.7081559,"['bar', 'point_of_interest', 'establishment']"
KOMKI Smoked BBQ,40.439244,-3.7115427,"['bar', 'restaurant', 'food', 'point_of_interest', 'establishment']"
Marisquería El 79,40.4385183,-3.7084347,"['bar', 'restaurant', 'food', 'point_of_interest', 'establishment']"
Bar Cea 27,40.43874479999999,-3.7105809,"['bar', 'restaurant', 'food', 'point_of_interest', 'store', 'establishment']"
Jayma,40.4387012,-3.7088358,"['bar', 'point_of_interest', 'establishment']"
Restaurante La Rasilla,40.4391515,-3.710710099999999,"['restaurant', 'bar', 'liquor_store', 'food', 'point_of_interest', 'store', 'establishment']"
Bar Fran,40.4389885,-3.7085409,"['bar', 'restaurant', 'food', 'point_of_interest', 'establishment']"
la mañica,40.4375922,-3.7099034,"['bar', 'restaurant', 'food', 'point_of_interest', 'establishment']"
Islas Filipinas café bar,40.4393325,-3.7109741,"['bar', 'restaurant', 'food', 'point_of_interest', 'establishment']"
Kooby Grilled Brochettes,40.4377593,-3.7101606,"['bar', 'restaurant', 'food', 'point_of_interest', 'establishment']"
Cafe Tosty snack,40.4377593,-3.7101606,"['cafe', 'bar', 'liquor_store', 'restaurant', 'food', 'point_of_interest', 'store', 'establishment']"
Bar Cerveceria Los Gallego,40.438329,-3.708448899999999,"['bar', 'point_of_interest', 'establishment']"
Sidrería del Norte,40.43826300000001,-3.708184500000001,"['bar', 'point_of_interest', 'establishment']"
Bar Luján,40.43922999999999,-3.708108299999999,"['bar', 'point_of_interest', 'establishment']"
Tapa Tece,40.439244,-3.7115427,"['bar', 'restaurant', 'food', 'point_of_interest', 'establishment']"
baúl BAR,40.4394019,-3.7081076,"['bar', 'restaurant', 'food', 'point_of_interest', 'establishment']"
Tapa's Bar,40.4394189,-3.7080808,"['bar', 'restaurant', 'food', 'point_of_interest', 'establishment']"
SIDRERÍA,40.4383432,-3.7079958,"['bar', 'restaurant', 'food', 'point_of_interest', 'establishment']"
La Esquina del 98,40.43943599999999,-3.708066,"['bar', 'restaurant', 'food', 'point_of_interest', 'establishment']"
La Caleta,40.437754,-3.713905,"['bar', 'restaurant', 'food', 'point_of_interest', 'establishment']"
KOMKI Smoked BBQ,40.439244,-3.7115427,"['bar', 'restaurant', 'food', 'point_of_interest', 'establishment']"
Scrum Rugby Bar,40.4397596,-3.712196899999999,"['bar', 'point_of_interest', 'establishment']"
Taberna del Chato Argüelles,40.43834390000001,-3.7139468,"['meal_takeaway', 'bar', 'restaurant', 'food', 'point_of_interest', 'establishment']"
Cervecería Contraluz,40.43819610000001,-3.714054999999999,"['bar', 'restaurant', 'food', 'point_of_interest', 'establishment']"
Venta El Segoviano Madrid,40.43751629999999,-3.712518299999999,"['bar', 'point_of_interest', 'establishment']"
Restaurante Cervecería La Rasilla,40.4390698,-3.7108733,"['bar', 'restaurant', 'food', 'point_of_interest', 'establishment']"
Coppola,40.4388288,-3.712265999999999,"['restaurant', 'cafe', 'bar', 'food', 'point_of_interest', 'establishment']"
Cervecería de Guzmán,40.4382924,-3.7130614,"['bar', 'point_of_interest', 'establishment']"
Taberna El Desafío,40.438838,-3.713442700000001,"['bar', 'point_of_interest', 'establishment']"
Cervecería Riaño,40.4388798,-3.7139794,"['bar', 'restaurant', 'food', 'point_of_interest', 'establishment']"
Balta Tarancon,40.4392165,-3.7136441,"['bar', 'point_of_interest', 'establishment']"
Tapa Tece,40.439244,-3.7115427,"['bar', 'restaurant', 'food', 'point_of_interest', 'establishment']"
Scrum pub bar de copas cerveceria,40.4397401,-3.712121099999999,"['bar', 'restaurant', 'food', 'point_of_interest', 'establishment']"
Escudo De Leon,40.43835249999999,-3.7139414,"['bar', 'point_of_interest', 'establishment']"
La Fama Del Vermut,40.4385227,-3.7140206,"['bar', 'restaurant', 'food', 'point_of_interest', 'establishment']"
TRAMA Bar,40.43835180000001,-3.7140434,"['bar', 'point_of_interest', 'establishment']"
Café Bar Tambor,40.4383653,-3.7142677,"['bar', 'cafe', 'food', 'point_of_interest', 'store', 'establishment']"
Islas Filipinas café bar,40.4393325,-3.7109741,"['bar', 'restaurant', 'food', 'point_of_interest', 'establishment']"
Tarabrta Bar,40.4394564,-3.714219,"['bar', 'point_of_interest', 'establishment']"
Tetería Mate Madrid,40.4377011,-3.7114464,"['bar', 'point_of_interest', 'establishment']"
Chiva Bar,40.4377011,-3.7114464,"['bar', 'liquor_store', 'restaurant', 'food', 'point_of_interest', 'store', 'establishment']"
Bar La Talega,40.4377011,-3.7114464,"['bar', 'point_of_interest', 'establishment']"
Taberna de Cea 62,40.439291,-3.71481,"['bar', 'restaurant', 'food', 'point_of_interest', 'establishment']"
Cervecería Contraluz,40.43819610000001,-3.714054999999999,"['bar', 'restaurant', 'food', 'point_of_interest', 'establishment']"
Taberna del Chato Argüelles,40.43834390000001,-3.7139468,"['meal_takeaway', 'bar', 'restaurant', 'food', 'point_of_interest', 'establishment']"
Cervecería San Chanveri S.C,40.43891440000001,-3.714959500000001,"['bar', 'point_of_interest', 'establishment']"
OLMO FUENTE DE LA TEJA SL,40.43816,-3.7152,"['bar', 'point_of_interest', 'establishment']"
Café Bar Tambor,40.4383653,-3.7142677,"['bar', 'cafe', 'food', 'point_of_interest', 'store', 'establishment']"
EL LABRADOR,40.4378727,-3.716011700000001,"['bar', 'liquor_store', 'restaurant', 'food', 'point_of_interest', 'store', 'establishment']"
Cervecería Riaño,40.4388798,-3.7139794,"['bar', 'restaurant', 'food', 'point_of_interest', 'establishment']"
La Fama Del Vermut,40.4385227,-3.7140206,"['bar', 'restaurant', 'food', 'point_of_interest', 'establishment']"
TRAMA Bar,40.43835180000001,-3.7140434,"['bar', 'point_of_interest', 'establishment']"
Tarabrta Bar,40.4394564,-3.714219,"['bar', 'point_of_interest', 'establishment']"
Premium Bar,40.43782109999999,-3.7145993,"['bar', 'point_of_interest', 'establishment']"
Escudo De Leon,40.43835249999999,-3.7139414,"['bar', 'point_of_interest', 'establishment']"
Cervecería El Graduado,40.43791660000001,-3.7167566,"['bar', 'point_of_interest', 'establishment']"
Yoyitas food & drinks,40.43792990000001,-3.716777,"['bar', 'restaurant', 'food', 'point_of_interest', 'establishment']"
Cafetería Labrador III,40.43792990000001,-3.716777,"['bar', 'restaurant', 'food', 'point_of_interest', 'establishment']"
Balta Tarancon,40.4392165,-3.7136441,"['bar', 'point_of_interest', 'establishment']"
La Cervecera 50,40.4373318,-3.7152485,"['bar', 'restaurant', 'food', 'point_of_interest', 'establishment']"
La Notte,40.437954,-3.717541400000001,"['bar', 'point_of_interest', 'establishment']"
Cafetería Sicilia,40.43999489999999,-3.7174819,"['bar', 'cafe', 'food', 'point_of_interest', 'store', 'establishment']"
Yoyitas food & drinks,40.43792990000001,-3.716777,"['bar', 'restaurant', 'food', 'point_of_interest', 'establishment']"
Cafetería Labrador III,40.43792990000001,-3.716777,"['bar', 'restaurant', 'food', 'point_of_interest', 'establishment']"
Cervecería El Graduado,40.43791660000001,-3.7167566,"['bar', 'point_of_interest', 'establishment']"
The Bar,40.43602140000001,-3.702140699999999,"['bar', 'point_of_interest', 'establishment']"
Cien por Cien Madrid,40.4378861,-3.700824999999999,"['bar', 'point_of_interest', 'establishment']"
Canister (Antiguo Don Latas),40.4360498,-3.7022836,"['bar', 'point_of_interest', 'establishment']"
Lizarran,40.4371073,-3.6998974,"['bar', 'restaurant', 'food', 'point_of_interest', 'establishment']"
Alma Cheli,40.4370549,-3.699868699999999,"['restaurant', 'bar', 'food', 'point_of_interest', 'establishment']"
Bar Río del Narcea,40.4364738,-3.7024186,"['bar', 'point_of_interest', 'establishment']"
Bar Antonio,40.43658140000001,-3.7008999,"['bar', 'point_of_interest', 'establishment']"
D & D BAR,40.4369922,-3.701019799999999,"['bar', 'cafe', 'food', 'point_of_interest', 'store', 'establishment']"
Bar El Pontón,40.4371076,-3.7020256,"['bar', 'restaurant', 'food', 'point_of_interest', 'establishment']"
Canister,40.43613999999999,-3.70216,"['bar', 'point_of_interest', 'establishment']"
"Bar Restaurante ""Mar De Vigo""",40.4359933,-3.7020574,"['bar', 'restaurant', 'food', 'point_of_interest', 'establishment']"
Estrella Galicia Bar Restaurante Campiello,40.4371665,-3.702351699999999,"['restaurant', 'bar', 'food', 'point_of_interest', 'establishment']"
Cervezas Y Tapas Vinos Y Tapas,40.4361744,-3.7023346,"['bar', 'restaurant', 'food', 'point_of_interest', 'establishment']"
Bar Restaurante El Camba,40.43750000000001,-3.701000200000001,"['bar', 'restaurant', 'food', 'point_of_interest', 'establishment']"
Piccolino Bar,40.4367417,-3.7002297,"['bar', 'point_of_interest', 'establishment']"
Campiello,40.4372716,-3.7023848,"['bar', 'point_of_interest', 'establishment']"
Ladymadrid bar,40.437586,-3.700984499999999,"['bar', 'point_of_interest', 'establishment']"
@ladymadrid.es1,40.437586,-3.700984499999999,"['bar', 'point_of_interest', 'establishment']"
Lunaticos,40.437586,-3.700984499999999,"['bar', 'point_of_interest', 'establishment']"
Bar Dugu,40.43772939999999,-3.7009918,"['bar', 'point_of_interest', 'establishment']"
Oh! Mandril,40.435786,-3.7025873,"['bar', 'restaurant', 'food', 'point_of_interest', 'establishment']"
Restaurante Ruta 20,40.435587,-3.702048,"['bar', 'restaurant', 'food', 'point_of_interest', 'establishment']"
De Madriz Al Pintxo S.L.,40.4370549,-3.699868699999999,"['bar', 'point_of_interest', 'establishment']"
Cuarta Colina S L,40.4375491,-3.7000802,"['bar', 'point_of_interest', 'establishment']"
Bar Cafetería Gades,40.437273,-3.703045299999999,"['bar', 'cafe', 'food', 'point_of_interest', 'store', 'establishment']"
Taberna Anunnaki,40.4369623,-3.7044847,"['bar', 'restaurant', 'food', 'point_of_interest', 'establishment']"
Tapeando,40.4363774,-3.704098,"['bar', 'restaurant', 'food', 'point_of_interest', 'establishment']"
Piscolabis Madrid,40.4372298,-3.704054499999999,"['bar', 'restaurant', 'food', 'point_of_interest', 'establishment']"
Makandé,40.4370748,-3.7039487,"['bar', 'restaurant', 'food', 'point_of_interest', 'establishment']"
Play Bar,40.43623409999999,-3.7050012,"['bar', 'cafe', 'food', 'point_of_interest', 'store', 'establishment']"
Bar barato,40.4364789,-3.704073799999999,"['bar', 'point_of_interest', 'establishment']"
Bar de tapas,40.4364555,-3.7044609,"['bar', 'point_of_interest', 'establishment']"
El Rincon de Pepito Perez,40.4365,-3.7050205,"['bar', 'restaurant', 'food', 'point_of_interest', 'establishment']"
Cervecería Ferreras,40.43597429999999,-3.704500399999999,"['bar', 'point_of_interest', 'establishment']"
Méndez Bové S L,40.4372359,-3.7034946,"['bar', 'point_of_interest', 'establishment']"
Juice Bar,40.4377246,-3.7044622,"['bar', 'point_of_interest', 'establishment']"
Bar Cafetería Gades,40.437273,-3.703045299999999,"['bar', 'cafe', 'food', 'point_of_interest', 'store', 'establishment']"
Bar Río del Narcea,40.4364738,-3.7024186,"['bar', 'point_of_interest', 'establishment']"
La Violeta,40.4367922,-3.7083123,"['cafe', 'bar', 'restaurant', 'food', 'point_of_interest', 'store', 'establishment']"
La Tapa De La Olla,40.4368155,-3.708588200000001,"['bar', 'point_of_interest', 'establishment']"
Cafetería Restaurante El Valle,40.4358136,-3.7083965,"['bar', 'point_of_interest', 'establishment']"
Bar Restaurante Matela,40.4362252,-3.7071239,"['bar', 'restaurant', 'food', 'point_of_interest', 'establishment']"
Bar Luga,40.4375247,-3.7081833,"['bar', 'point_of_interest', 'establishment']"
Meat,40.43753299999999,-3.7082368,"['bar', 'point_of_interest', 'establishment']"
La Franchuteria Madrid,40.4358136,-3.7083965,"['bar', 'liquor_store', 'restaurant', 'food', 'point_of_interest', 'store', 'establishment']"
NINNA´S PIZZA,40.4352888,-3.7072212,"['cafe', 'bar', 'restaurant', 'food', 'point_of_interest', 'store', 'establishment']"
O Boteco Brasil,40.4362755,-3.708804299999999,"['bar', 'restaurant', 'food', 'point_of_interest', 'establishment']"
Rock Road,40.4364682,-3.7099838,"['bar', 'point_of_interest', 'establishment']"
El Oso Cortés,40.43629,-3.709128999999999,"['bar', 'restaurant', 'food', 'point_of_interest', 'establishment']"
La Tapa De La Olla,40.4368155,-3.708588200000001,"['bar', 'point_of_interest', 'establishment']"
La Vida es Hoy,40.4362165,-3.7110225,"['bar', 'point_of_interest', 'establishment']"
Destellos,40.43774459999999,-3.709909399999999,"['bar', 'point_of_interest', 'establishment']"
La Violeta,40.4367922,-3.7083123,"['cafe', 'bar', 'restaurant', 'food', 'point_of_interest', 'store', 'establishment']"
La Galerna,40.436856,-3.7114051,"['bar', 'point_of_interest', 'establishment']"
Cafetería Restaurante El Valle,40.4358136,-3.7083965,"['bar', 'point_of_interest', 'establishment']"
Pool And Beer,40.4374739,-3.710973999999999,"['bar', 'restaurant', 'food', 'point_of_interest', 'establishment']"
la mañica,40.4375922,-3.7099034,"['bar', 'restaurant', 'food', 'point_of_interest', 'establishment']"
YOVA'S PUB,40.4364682,-3.7099838,"['bar', 'point_of_interest', 'establishment']"
Djenne,40.4364682,-3.7099838,"['bar', 'point_of_interest', 'establishment']"
¡Yo que sé!,40.43637380000001,-3.7102753,"['bar', 'restaurant', 'food', 'point_of_interest', 'establishment']"
Yoyo's Bar,40.4364352,-3.7103432,"['bar', 'point_of_interest', 'establishment']"
Inverland Tribes,40.4363821,-3.7103136,"['bar', 'point_of_interest', 'establishment']"
CAFETERIA RAMIMAR,40.4371796,-3.7102343,"['restaurant', 'bar', 'liquor_store', 'food', 'point_of_interest', 'store', 'establishment']"
El Botiquín,40.43629,-3.7091288,"['bar', 'restaurant', 'food', 'point_of_interest', 'establishment']"
Cielo Al Reves,40.43583599999999,-3.709995999999999,"['convenience_store', 'grocery_or_supermarket', 'meal_takeaway', 'bar', 'restaurant', 'food', 'point_of_interest', 'store', 'establishment']"
El Rincón de Fer,40.4358359,-3.7099964,"['bar', 'point_of_interest', 'establishment']"
O Boteco Brasil,40.4362755,-3.708804299999999,"['bar', 'restaurant', 'food', 'point_of_interest', 'establishment']"
Bar Con fútbol,40.4358182,-3.710055399999999,"['bar', 'point_of_interest', 'establishment']"
Bar La Viña Classica,40.4357887,-3.7100585,"['bar', 'point_of_interest', 'establishment']"
Casa Victor,40.4357643,-3.7100601,"['bar', 'point_of_interest', 'establishment']"
La Tabernita,40.4362165,-3.7110225,"['bar', 'point_of_interest', 'establishment']"
Kooby Grilled Brochettes,40.4377593,-3.7101606,"['bar', 'restaurant', 'food', 'point_of_interest', 'establishment']"
Cafe Tosty snack,40.4377593,-3.7101606,"['cafe', 'bar', 'liquor_store', 'restaurant', 'food', 'point_of_interest', 'store', 'establishment']"
La fuente de pomares,40.4361183,-3.7111066,"['bar', 'point_of_interest', 'establishment']"
Peter's Bar,40.4368597,-3.711380400000001,"['bar', 'point_of_interest', 'establishment']"
Cafetería Bar El Búho,40.4373534,-3.7111411,"['bar', 'restaurant', 'food', 'point_of_interest', 'establishment']"
La taberna de peligro,40.4367899,-3.711399499999999,"['bar', 'point_of_interest', 'establishment']"
Bar De Sal,40.4373492,-3.711157999999999,"['bar', 'point_of_interest', 'establishment']"
La Franchuteria Madrid,40.4358136,-3.7083965,"['bar', 'liquor_store', 'restaurant', 'food', 'point_of_interest', 'store', 'establishment']"
Meat,40.43753299999999,-3.7082368,"['bar', 'point_of_interest', 'establishment']"
Bar Luga,40.4375247,-3.7081833,"['bar', 'point_of_interest', 'establishment']"
Tierra Burrito Bar,40.43605489999999,-3.7129511,"['bar', 'restaurant', 'food', 'point_of_interest', 'establishment']"
La Caleta,40.437754,-3.713905,"['bar', 'restaurant', 'food', 'point_of_interest', 'establishment']"
Pub El Tren,40.43548510000001,-3.711641799999999,"['restaurant', 'bar', 'liquor_store', 'food', 'point_of_interest', 'store', 'establishment']"
Venta El Segoviano Madrid,40.43751629999999,-3.712518299999999,"['bar', 'point_of_interest', 'establishment']"
La Tabarra Madrid,40.4358762,-3.7129614,"['restaurant', 'bar', 'food', 'point_of_interest', 'establishment']"
La Galerna,40.436856,-3.7114051,"['bar', 'point_of_interest', 'establishment']"
La Vida es Hoy,40.4362165,-3.7110225,"['bar', 'point_of_interest', 'establishment']"
Bodegas Jiménez,40.4364654,-3.7128198,"['bar', 'point_of_interest', 'establishment']"
Miladama,40.4369738,-3.7131519,"['bar', 'restaurant', 'food', 'point_of_interest', 'establishment']"
s10bar,40.43627360000001,-3.7129341,"['bar', 'restaurant', 'food', 'point_of_interest', 'establishment']"
Bacchus English Book Bar,40.43641900000001,-3.7121503,"['bar', 'book_store', 'restaurant', 'food', 'point_of_interest', 'store', 'establishment']"
el bombo,40.43669790000001,-3.7131473,"['bar', 'restaurant', 'food', 'point_of_interest', 'establishment']"
Bubba Bar Las mejores Hamburguesas de Pollo Frito Restaurante Americano,40.4364807,-3.712176,"['meal_takeaway', 'bar', 'restaurant', 'food', 'point_of_interest', 'establishment']"
La Escabechina,40.4365832,-3.7131762,"['convenience_store', 'bar', 'restaurant', 'food', 'point_of_interest', 'store', 'establishment']"
Mcafil Restauración S L,40.43627360000001,-3.7129341,"['bar', 'point_of_interest', 'establishment']"
La Tapería by Pepa,40.4372311,-3.7131187,"['bar', 'restaurant', 'food', 'point_of_interest', 'establishment']"
La Piraña,40.43723500000001,-3.713132,"['bar', 'restaurant', 'food', 'point_of_interest', 'establishment']"
Taproom Madrid,40.43605489999999,-3.7129511,"['bar', 'restaurant', 'food', 'point_of_interest', 'establishment']"
Son of Baby Bull,40.43725999999999,-3.713306999999999,"['bar', 'restaurant', 'food', 'point_of_interest', 'establishment']"
La taberna de peligro,40.4367899,-3.711399499999999,"['bar', 'point_of_interest', 'establishment']"
Peter's Bar,40.4368597,-3.711380400000001,"['bar', 'point_of_interest', 'establishment']"
Bar La Cachimba,40.4356719,-3.713267300000001,"['bar', 'restaurant', 'food', 'point_of_interest', 'establishment']"
La fuente de pomares,40.4361183,-3.7111066,"['bar', 'point_of_interest', 'establishment']"
Bar De Sal,40.4373492,-3.711157999999999,"['bar', 'point_of_interest', 'establishment']"
La Tabernita,40.4362165,-3.7110225,"['bar', 'point_of_interest', 'establishment']"
Cafetería Bar El Búho,40.4373534,-3.7111411,"['bar', 'restaurant', 'food', 'point_of_interest', 'establishment']"
Tetería Mate Madrid,40.4377011,-3.7114464,"['bar', 'point_of_interest', 'establishment']"
Chiva Bar,40.4377011,-3.7114464,"['bar', 'liquor_store', 'restaurant', 'food', 'point_of_interest', 'store', 'establishment']"
Bar La Talega,40.4377011,-3.7114464,"['bar', 'point_of_interest', 'establishment']"
Pool And Beer,40.4374739,-3.710973999999999,"['bar', 'restaurant', 'food', 'point_of_interest', 'establishment']"
Anjupe Cafetería Bar & Tapas,40.4366667,-3.7155556,"['bar', 'restaurant', 'food', 'point_of_interest', 'establishment']"
Restaurante Sazadon,40.4359221,-3.7152363,"['restaurant', 'bakery', 'bar', 'liquor_store', 'food', 'point_of_interest', 'store', 'establishment']"
Urban 85,40.435353,-3.7159729,"['bar', 'point_of_interest', 'establishment']"
Cervecería CruzBlanca,40.4352324,-3.715389,"['night_club', 'bar', 'restaurant', 'food', 'point_of_interest', 'establishment']"
Burritos,40.43539519999999,-3.716426599999999,"['bar', 'point_of_interest', 'establishment']"
MANSION,40.43534709999999,-3.7163205,"['night_club', 'bar', 'point_of_interest', 'establishment']"
La Cervecera 50,40.4373318,-3.7152485,"['bar', 'restaurant', 'food', 'point_of_interest', 'establishment']"
Bar Armando,40.4358937,-3.714414999999999,"['bar', 'point_of_interest', 'establishment']"
BAR JUCARO,40.4366526,-3.7154882,"['bar', 'liquor_store', 'restaurant', 'food', 'point_of_interest', 'store', 'establishment']"
Grupo hostelo Marvic slab sl,40.4369964,-3.7152613,"['bar', 'point_of_interest', 'establishment']"
CERVECERIA 50,40.4369964,-3.7152613,"['bar', 'liquor_store', 'restaurant', 'food', 'point_of_interest', 'store', 'establishment']"
Trasgu,40.43661419999999,-3.7162933,"['bar', 'point_of_interest', 'establishment']"
La rebuelta,40.4365429,-3.7146159,"['bar', 'restaurant', 'food', 'point_of_interest', 'establishment']"
Restaurante Cerveceria Casa Berdi,40.435932,-3.715540999999999,"['bar', 'restaurant', 'food', 'point_of_interest', 'establishment']"
Convexo,40.4366903,-3.716445199999999,"['bar', 'restaurant', 'food', 'point_of_interest', 'establishment']"
MOMBURGUER,40.4366903,-3.716445199999999,"['bar', 'restaurant', 'food', 'point_of_interest', 'establishment']"
Chiripa Bar,40.4373978,-3.714451699999999,"['bar', 'point_of_interest', 'establishment']"
La Diosa Nightlife,40.4359014,-3.716500999999999,"['bar', 'point_of_interest', 'establishment']"
Patatin Company,40.4354927,-3.715236300000001,"['bar', 'restaurant', 'food', 'point_of_interest', 'establishment']"
BARMAN HOOKAH,40.4357339,-3.7165119,"['hair_care', 'night_club', 'cafe', 'bar', 'food', 'health', 'point_of_interest', 'store', 'establishment']"
Disaster CLUB,40.4357339,-3.7165119,"['bar', 'point_of_interest', 'establishment']"
EL LABRADOR,40.4378727,-3.716011700000001,"['bar', 'liquor_store', 'restaurant', 'food', 'point_of_interest', 'store', 'establishment']"
Premium Bar,40.43782109999999,-3.7145993,"['bar', 'point_of_interest', 'establishment']"
OLMO FUENTE DE LA TEJA SL,40.43816,-3.7152,"['bar', 'point_of_interest', 'establishment']"
Penalti Lounge Bar Moncloa,40.435419,-3.717764,"['bar', 'restaurant', 'food', 'point_of_interest', 'establishment']"
El Sitio,40.4354109,-3.7175474,"['meal_takeaway', 'bar', 'restaurant', 'food', 'point_of_interest', 'store', 'establishment']"
La Notte,40.437954,-3.717541400000001,"['bar', 'point_of_interest', 'establishment']"
PORTER´S PUB KARAOKE,40.4352714,-3.7176885,"['night_club', 'bar', 'point_of_interest', 'establishment']"
Anjupe,40.4356349,-3.7176789,"['night_club', 'cafe', 'bar', 'food', 'point_of_interest', 'store', 'establishment']"
Mc Donnalds,40.4354741,-3.7190934,"['bar', 'point_of_interest', 'establishment']"
Convexo,40.4366903,-3.716445199999999,"['bar', 'restaurant', 'food', 'point_of_interest', 'establishment']"
MOMBURGUER,40.4366903,-3.716445199999999,"['bar', 'restaurant', 'food', 'point_of_interest', 'establishment']"
Trasgu,40.43661419999999,-3.7162933,"['bar', 'point_of_interest', 'establishment']"
Sagaretxe,40.434241,-3.701002,"['bar', 'restaurant', 'food', 'point_of_interest', 'establishment']"
La Blanca Doble,40.4353032,-3.7002355,"['bar', 'restaurant', 'food', 'point_of_interest', 'establishment']"
Taberna Mikacho,40.4339868,-3.701989300000001,"['bar', 'restaurant', 'food', 'point_of_interest', 'establishment']"
Artium Café,40.43510330000001,-3.7022553,"['bar', 'point_of_interest', 'establishment']"
Taberna La Mina,40.434816,-3.701707,"['bar', 'restaurant', 'food', 'point_of_interest', 'establishment']"
The Dash,40.4334982,-3.7006417,"['bar', 'point_of_interest', 'establishment']"
Francachela Erotic Love,40.4334982,-3.7006417,"['bar', 'point_of_interest', 'establishment']"
Bar Miguel,40.4344223,-3.701480799999999,"['bar', 'point_of_interest', 'establishment']"
Restaurante Bar – Pa´Lante,40.43451009999999,-3.7011938,"['restaurant', 'bar', 'food', 'point_of_interest', 'establishment']"
Cerveceria,40.43503440000001,-3.701821300000001,"['bar', 'point_of_interest', 'establishment']"
Local en venta,40.4338925,-3.701683199999999,"['bar', 'point_of_interest', 'establishment']"
Quebec Gastrotortilla,40.43392650000001,-3.7019686,"['bar', 'restaurant', 'food', 'point_of_interest', 'establishment']"
Taberna Pulpería Saudade,40.43444179999999,-3.7027165,"['restaurant', 'bar', 'food', 'point_of_interest', 'establishment']"
Parrilla Yolanda Ceveceria,40.4351797,-3.7003218,"['bar', 'restaurant', 'food', 'point_of_interest', 'establishment']"
La Chula,40.4344419,-3.7027543,"['bar', 'restaurant', 'food', 'point_of_interest', 'establishment']"
Restaurante Ruta 20,40.435587,-3.702048,"['bar', 'restaurant', 'food', 'point_of_interest', 'establishment']"
Casa Puebla Olavide,40.4332569,-3.701032999999999,"['cafe', 'bar', 'restaurant', 'food', 'point_of_interest', 'establishment']"
Cafe Bar Galicia,40.4335439,-3.700222,"['bar', 'point_of_interest', 'establishment']"
Bar La Oliva,40.433258,-3.700853999999999,"['bar', 'restaurant', 'food', 'point_of_interest', 'establishment']"
Lili’s Ristorante & Grill,40.4331521,-3.7014461,"['restaurant', 'bar', 'food', 'point_of_interest', 'establishment']"
Oh! Mandril,40.435786,-3.7025873,"['bar', 'restaurant', 'food', 'point_of_interest', 'establishment']"
"Bar Restaurante ""Mar De Vigo""",40.4359933,-3.7020574,"['bar', 'restaurant', 'food', 'point_of_interest', 'establishment']"
El Carmen,40.435039,-3.705134,"['restaurant', 'bar', 'food', 'point_of_interest', 'establishment']"
"Sí, quiero! Taberna",40.4346436,-3.7041316,"['cafe', 'bar', 'restaurant', 'food', 'point_of_interest', 'store', 'establishment']"
La Espuela de Oro,40.43488240000001,-3.7057931,"['bar', 'point_of_interest', 'establishment']"
nutnut,40.434552,-3.704116999999999,"['bar', 'restaurant', 'food', 'point_of_interest', 'clothing_store', 'store', 'establishment']"
MasQMenos Glorieta de Quevedo,40.43403480000001,-3.704574599999999,"['bar', 'restaurant', 'food', 'point_of_interest', 'establishment']"
Tierra Burrito Bar,40.43403199999999,-3.704573999999999,"['bar', 'restaurant', 'food', 'point_of_interest', 'establishment']"
The Low Cost Drinks Bar,40.4350268,-3.704834,"['bar', 'point_of_interest', 'establishment']"
Casa de Klein,40.434041,-3.705381799999999,"['bar', 'food', 'point_of_interest', 'establishment']"
Bar Los Picos De Urbión Cerveceria,40.4350199,-3.7054729,"['bar', 'point_of_interest', 'establishment']"
SALÓN DE JUEGOS MADRID-15,40.4334824,-3.7051735,"['bar', 'point_of_interest', 'establishment']"
La Chula,40.4344419,-3.7027543,"['bar', 'restaurant', 'food', 'point_of_interest', 'establishment']"
Taberna Pulpería Saudade,40.43444179999999,-3.7027165,"['restaurant', 'bar', 'food', 'point_of_interest', 'establishment']"
El Padrino Bar & Tapas,40.4347984,-3.7057905,"['bar', 'point_of_interest', 'establishment']"
El Bar de Luis,40.43479360000001,-3.705826700000001,"['bar', 'point_of_interest', 'establishment']"
Wainari - Bar Restaurante & Vinoteca,40.4337536,-3.705523699999999,"['bar', 'liquor_store', 'restaurant', 'food', 'point_of_interest', 'store', 'establishment']"
Alpisco One Cocktail Bar Chamberi,40.4340019,-3.705784899999999,"['bar', 'restaurant', 'food', 'point_of_interest', 'establishment']"
Yakitori bar,40.43514399999999,-3.705806,"['bar', 'restaurant', 'food', 'point_of_interest', 'establishment']"
Cervecería Ferreras,40.43597429999999,-3.704500399999999,"['bar', 'point_of_interest', 'establishment']"
Bar Tostas De Luis,40.4349109,-3.7060685,"['restaurant', 'bar', 'food', 'point_of_interest', 'establishment']"
Drakkar Bodega,40.4340611,-3.7079727,"['bar', 'point_of_interest', 'establishment']"
Tripea,40.4342469,-3.7083293,"['bar', 'restaurant', 'food', 'point_of_interest', 'establishment']"
"Craft 19 - Pastrami, Burgers & Beer",40.4341012,-3.7082834,"['restaurant', 'bar', 'food', 'point_of_interest', 'establishment']"
Mercado de Vallehermoso puesto Cervezas La Virgen ⚠️ CERVEZA PARA LLEVAR 🍻,40.4340946,-3.708541500000001,"['bar', 'restaurant', 'food', 'point_of_interest', 'establishment']"
La Espuela de Oro,40.43488240000001,-3.7057931,"['bar', 'point_of_interest', 'establishment']"
"Campanu, El",40.4348395,-3.7063442,"['bar', 'restaurant', 'food', 'point_of_interest', 'establishment']"
La Croquetuela,40.4351429,-3.707250700000001,"['bar', 'restaurant', 'food', 'point_of_interest', 'establishment']"
Rocklette,40.43416069999999,-3.707697,"['bar', 'point_of_interest', 'establishment']"
La Familia,40.434891,-3.7062351,"['bar', 'restaurant', 'food', 'point_of_interest', 'establishment']"
NINNA´S PIZZA,40.4352888,-3.7072212,"['cafe', 'bar', 'restaurant', 'food', 'point_of_interest', 'store', 'establishment']"
Cachuelo Bacalao,40.43420760000001,-3.7079826,"['bar', 'restaurant', 'food', 'point_of_interest', 'establishment']"
Bar Tostas De Luis,40.4349109,-3.7060685,"['restaurant', 'bar', 'food', 'point_of_interest', 'establishment']"
Bésame Aqui Bar De Copas,40.4351448,-3.706131,"['bar', 'point_of_interest', 'establishment']"
Di Buono,40.4341134,-3.708124499999999,"['grocery_or_supermarket', 'bar', 'food', 'point_of_interest', 'store', 'establishment']"
El Bar de Luis,40.43479360000001,-3.705826700000001,"['bar', 'point_of_interest', 'establishment']"
Bar Garmar,40.43514939999999,-3.708059799999999,"['bar', 'point_of_interest', 'establishment']"
Eggo -Huevos Ecológicos-,40.43411940000001,-3.7081906,"['convenience_store', 'bar', 'restaurant', 'food', 'point_of_interest', 'store', 'establishment']"
El Padrino Bar & Tapas,40.4347984,-3.7057905,"['bar', 'point_of_interest', 'establishment']"
Vinos Deliberados,40.4341044,-3.708212400000001,"['bar', 'point_of_interest', 'establishment']"
Salon De Juegos Kasino Bar,40.43373520000001,-3.7062486,"['bar', 'point_of_interest', 'establishment']"
El Trato Gastrobar Arroces,40.4338539,-3.708043,"['meal_delivery', 'meal_takeaway', 'bar', 'restaurant', 'food', 'point_of_interest', 'establishment']"
Kitchen 154 (Mercado de Vallehermoso),40.4341012,-3.7082834,"['restaurant', 'meal_delivery', 'bar', 'food', 'point_of_interest', 'establishment']"
San Pietro - Pizza / Pasta / Craft Beer,40.4342553,-3.7084205,"['meal_delivery', 'meal_takeaway', 'bar', 'restaurant', 'food', 'point_of_interest', 'establishment']"
Alpisco One Cocktail Bar Chamberi,40.4340019,-3.705784899999999,"['bar', 'restaurant', 'food', 'point_of_interest', 'establishment']"
Yakitori bar,40.43514399999999,-3.705806,"['bar', 'restaurant', 'food', 'point_of_interest', 'establishment']"
La Crepa - Creperie Bar,40.4341293,-3.708500599999999,"['bar', 'restaurant', 'food', 'point_of_interest', 'store', 'establishment']"
Cervezas Enigma,40.4341552,-3.7085361,"['bar', 'restaurant', 'food', 'point_of_interest', 'establishment']"
Rocklette,40.434155,-3.708536,"['bar', 'restaurant', 'food', 'point_of_interest', 'establishment']"
Bar Los Picos De Urbión Cerveceria,40.4350199,-3.7054729,"['bar', 'point_of_interest', 'establishment']"
José Manuel Rubio Fernández,40.4353731,-3.708433599999999,"['bar', 'point_of_interest', 'establishment']"
Labirratorium,40.433788,-3.708546999999999,"['bar', 'liquor_store', 'restaurant', 'food', 'point_of_interest', 'store', 'establishment']"
Casa de Klein,40.434041,-3.705381799999999,"['bar', 'food', 'point_of_interest', 'establishment']"
Wainari - Bar Restaurante & Vinoteca,40.4337536,-3.705523699999999,"['bar', 'liquor_store', 'restaurant', 'food', 'point_of_interest', 'store', 'establishment']"
Corrientes 348,40.4355716,-3.708402499999999,"['bar', 'restaurant', 'food', 'point_of_interest', 'establishment']"
El Imperio,40.435087,-3.710430000000001,"['bar', 'restaurant', 'food', 'point_of_interest', 'establishment']"
Vergüenza Ajena,40.4348682,-3.7101327,"['bar', 'point_of_interest', 'establishment']"
The Low Cost Drinks - Bar de Copas,40.43515909999999,-3.7108794,"['bar', 'point_of_interest', 'establishment']"
Mercado de Vallehermoso puesto Cervezas La Virgen ⚠️ CERVEZA PARA LLEVAR 🍻,40.4340946,-3.708541500000001,"['bar', 'restaurant', 'food', 'point_of_interest', 'establishment']"
El Centinela de Quevedo,40.434223,-3.710737,"['bar', 'restaurant', 'food', 'point_of_interest', 'establishment']"
Tripea,40.4342469,-3.7083293,"['bar', 'restaurant', 'food', 'point_of_interest', 'establishment']"
"Craft 19 - Pastrami, Burgers & Beer",40.4341012,-3.7082834,"['restaurant', 'bar', 'food', 'point_of_interest', 'establishment']"
Drakkar Bodega,40.4340611,-3.7079727,"['bar', 'point_of_interest', 'establishment']"
The Rock Bar,40.4351531,-3.7109075,"['bar', 'point_of_interest', 'establishment']"
MIKUNA,40.4348005,-3.7101058,"['bar', 'restaurant', 'food', 'point_of_interest', 'establishment']"
Cervecería Barrera,40.4351314,-3.7100747,"['bar', 'point_of_interest', 'establishment']"
Cerveceria y Embutido Zush,40.4341595,-3.71044,"['bar', 'point_of_interest', 'establishment']"
Bar Sierra,40.43420369999999,-3.710484399999999,"['bar', 'restaurant', 'food', 'point_of_interest', 'establishment']"
Bar Restaurante Paco & Valentina,40.43394190000001,-3.709517900000001,"['restaurant', 'bar', 'food', 'point_of_interest', 'establishment']"
PACO Y VALENTINA,40.4339296,-3.7094414,"['bar', 'point_of_interest', 'establishment']"
Bocatas lovers,40.4338664,-3.709441400000001,"['bar', 'liquor_store', 'restaurant', 'food', 'point_of_interest', 'store', 'establishment']"
Desde la Barrera 1932,40.43419000000001,-3.710892700000001,"['bar', 'restaurant', 'food', 'point_of_interest', 'establishment']"
Taberna de Lea,40.4335385,-3.7100953,"['bar', 'restaurant', 'food', 'point_of_interest', 'establishment']"
Cervezas Enigma,40.4341552,-3.7085361,"['bar', 'restaurant', 'food', 'point_of_interest', 'establishment']"
Rocklette,40.434155,-3.708536,"['bar', 'restaurant', 'food', 'point_of_interest', 'establishment']"
La Crepa - Creperie Bar,40.4341293,-3.708500599999999,"['bar', 'restaurant', 'food', 'point_of_interest', 'store', 'establishment']"
Bombay,40.4350741,-3.7110923,"['bar', 'point_of_interest', 'establishment']"
San Pietro - Pizza / Pasta / Craft Beer,40.4342553,-3.7084205,"['meal_delivery', 'meal_takeaway', 'bar', 'restaurant', 'food', 'point_of_interest', 'establishment']"
Cristapas,40.4334312,-3.7102204,"['bar', 'restaurant', 'food', 'point_of_interest', 'establishment']"
Labirratorium,40.433788,-3.708546999999999,"['bar', 'liquor_store', 'restaurant', 'food', 'point_of_interest', 'store', 'establishment']"
Bar Tapas Menu Diario La Esencia De Garay,40.4348321,-3.711374199999999,"['bar', 'point_of_interest', 'establishment']"
Casa Victor,40.4357643,-3.7100601,"['bar', 'point_of_interest', 'establishment']"
Cerveceria Manfer's,40.4349336,-3.7113807,"['bar', 'point_of_interest', 'establishment']"
Kitchen 154 (Mercado de Vallehermoso),40.4341012,-3.7082834,"['restaurant', 'meal_delivery', 'bar', 'food', 'point_of_interest', 'establishment']"
Bar La Viña Classica,40.4357887,-3.7100585,"['bar', 'point_of_interest', 'establishment']"
Bar Con fútbol,40.4358182,-3.710055399999999,"['bar', 'point_of_interest', 'establishment']"
El Rincón de Fer,40.4358359,-3.7099964,"['bar', 'point_of_interest', 'establishment']"
Cielo Al Reves,40.43583599999999,-3.709995999999999,"['convenience_store', 'grocery_or_supermarket', 'meal_takeaway', 'bar', 'restaurant', 'food', 'point_of_interest', 'store', 'establishment']"
Vinos Deliberados,40.4341044,-3.708212400000001,"['bar', 'point_of_interest', 'establishment']"
Eggo -Huevos Ecológicos-,40.43411940000001,-3.7081906,"['convenience_store', 'bar', 'restaurant', 'food', 'point_of_interest', 'store', 'establishment']"
Bar TUGA,40.4351832,-3.7113626,"['restaurant', 'bar', 'food', 'point_of_interest', 'establishment']"
José Manuel Rubio Fernández,40.4353731,-3.708433599999999,"['bar', 'point_of_interest', 'establishment']"
TABERNA GARNICA,40.433224,-3.7102,"['bar', 'restaurant', 'food', 'point_of_interest', 'establishment']"
Di Buono,40.4341134,-3.708124499999999,"['grocery_or_supermarket', 'bar', 'food', 'point_of_interest', 'store', 'establishment']"
Cafetería Tormes,40.43337040000001,-3.708869500000001,"['bar', 'restaurant', 'food', 'point_of_interest', 'establishment']"
Pub Cafe Volare,40.4332079,-3.7104815,"['bar', 'point_of_interest', 'establishment']"
Cachuelo Bacalao,40.43420760000001,-3.7079826,"['bar', 'restaurant', 'food', 'point_of_interest', 'establishment']"
Cervecería La Ola,40.4351647,-3.7115453,"['bar', 'restaurant', 'food', 'point_of_interest', 'establishment']"
Bar Garmar,40.43514939999999,-3.708059799999999,"['bar', 'point_of_interest', 'establishment']"
Corrientes 348,40.4355716,-3.708402499999999,"['bar', 'restaurant', 'food', 'point_of_interest', 'establishment']"
Pub El Tren,40.43548510000001,-3.711641799999999,"['restaurant', 'bar', 'liquor_store', 'food', 'point_of_interest', 'store', 'establishment']"
Restaurante Alcobilla,40.4333846,-3.7134306,"['bar', 'restaurant', 'food', 'point_of_interest', 'establishment']"
Tierra Burrito Bar,40.43605489999999,-3.7129511,"['bar', 'restaurant', 'food', 'point_of_interest', 'establishment']"
"The Toast Cafe, Brunch Gourmet, Cerveza Artesanal de Grifo",40.43431859999999,-3.7127786,"['cafe', 'bar', 'restaurant', 'food', 'point_of_interest', 'store', 'establishment']"
La Tabarra Madrid,40.4358762,-3.7129614,"['restaurant', 'bar', 'food', 'point_of_interest', 'establishment']"
The Low Cost Drinks - Bar de Copas,40.43515909999999,-3.7108794,"['bar', 'point_of_interest', 'establishment']"
El Centinela de Quevedo,40.434223,-3.710737,"['bar', 'restaurant', 'food', 'point_of_interest', 'establishment']"
María Teresa García Alvarez,40.4351005,-3.7132971,"['bar', 'point_of_interest', 'establishment']"
"Grupo Bang Bang, cerveza artesana de grifo, comida americana, brunch",40.4343367,-3.712752,"['restaurant', 'bar', 'food', 'point_of_interest', 'establishment']"
The Toast Tavern,40.4344314,-3.7130648,"['bar', 'restaurant', 'food', 'point_of_interest', 'establishment']"
Bósforos,40.4352054,-3.712142799999999,"['bar', 'restaurant', 'food', 'point_of_interest', 'establishment']"
Bar Rico,40.4342793,-3.713610299999999,"['restaurant', 'bar', 'food', 'point_of_interest', 'establishment']"
"WashBar.es, Lavar y Mucho Más",40.4351886,-3.711922400000001,"['laundry', 'bar', 'restaurant', 'food', 'point_of_interest', 'establishment']"
Paulo,40.43522970000001,-3.7133216,"['bar', 'point_of_interest', 'establishment']"
Rotterdam,40.4351931,-3.7118743,"['bar', 'point_of_interest', 'establishment']"
Aki nomas,40.4351785,-3.711682499999999,"['bar', 'point_of_interest', 'establishment']"
Como en Chile Restaurante,40.4341267,-3.7137234,"['restaurant', 'bar', 'liquor_store', 'food', 'point_of_interest', 'store', 'establishment']"
Bar Tapas Menu Diario La Esencia De Garay,40.4348321,-3.711374199999999,"['bar', 'point_of_interest', 'establishment']"
Cervecería La Ola,40.4351647,-3.7115453,"['bar', 'restaurant', 'food', 'point_of_interest', 'establishment']"
Cerveceria Manfer's,40.4349336,-3.7113807,"['bar', 'point_of_interest', 'establishment']"
Bar TUGA,40.4351832,-3.7113626,"['restaurant', 'bar', 'food', 'point_of_interest', 'establishment']"
Bar La Cachimba,40.4356719,-3.713267300000001,"['bar', 'restaurant', 'food', 'point_of_interest', 'establishment']"
Bombay,40.4350741,-3.7110923,"['bar', 'point_of_interest', 'establishment']"
Bar Bukavu,40.43527779999999,-3.7141667,"['bar', 'night_club', 'cafe', 'restaurant', 'food', 'point_of_interest', 'store', 'establishment']"
Desde la Barrera 1932,40.43419000000001,-3.710892700000001,"['bar', 'restaurant', 'food', 'point_of_interest', 'establishment']"
The Rock Bar,40.4351531,-3.7109075,"['bar', 'point_of_interest', 'establishment']"
UTATANE,40.4349648,-3.7144528,"['bar', 'bakery', 'cafe', 'liquor_store', 'restaurant', 'food', 'point_of_interest', 'store', 'establishment']"
Taproom Madrid,40.43605489999999,-3.7129511,"['bar', 'restaurant', 'food', 'point_of_interest', 'establishment']"
OHM,40.4341275,-3.7145064,"['bar', 'point_of_interest', 'establishment']"
Bar Mochamoó,40.4352616,-3.713280999999999,"['bar', 'point_of_interest', 'establishment']"
Bar Bacchus,40.433147,-3.714934999999999,"['night_club', 'bar', 'point_of_interest', 'establishment']"
La Taberna de Moncloa,40.4352734,-3.7144964,"['bar', 'restaurant', 'food', 'point_of_interest', 'establishment']"
Bastard Heavy Rock Pub,40.433705,-3.715023,"['bar', 'point_of_interest', 'establishment']"
Cervecería CruzBlanca,40.4352324,-3.715389,"['night_club', 'bar', 'restaurant', 'food', 'point_of_interest', 'establishment']"
Gandarío,40.43455300000001,-3.715433,"['bar', 'restaurant', 'food', 'point_of_interest', 'establishment']"
Touch Pub,40.43450480000001,-3.7157373,"['bar', 'point_of_interest', 'establishment']"
TNT Heavy Rock Bar,40.4341196,-3.7152464,"['bar', 'point_of_interest', 'establishment']"
Gatuperio,40.4341073,-3.7150164,"['bar', 'point_of_interest', 'establishment']"
Metemetres,40.4337554,-3.7153887,"['night_club', 'bar', 'point_of_interest', 'establishment']"
Urban 85,40.435353,-3.7159729,"['bar', 'point_of_interest', 'establishment']"
Yedra,40.4338081,-3.7145562,"['bar', 'point_of_interest', 'establishment']"
MANSION,40.43534709999999,-3.7163205,"['night_club', 'bar', 'point_of_interest', 'establishment']"
Burritos,40.43539519999999,-3.716426599999999,"['bar', 'point_of_interest', 'establishment']"
Bar Anjupe,40.4343389,-3.7165951,"['bar', 'restaurant', 'food', 'point_of_interest', 'establishment']"
Primera Toma,40.43326109999999,-3.7155427,"['bar', 'point_of_interest', 'establishment']"
Cervecería 100 Montaditos,40.4346076,-3.7171977,"['bar', 'restaurant', 'food', 'point_of_interest', 'establishment']"
DOS CON CINCUENTA,40.4344931,-3.715659999999999,"['night_club', 'bar', 'point_of_interest', 'establishment']"
Restaurante Sazadon,40.4359221,-3.7152363,"['restaurant', 'bakery', 'bar', 'liquor_store', 'food', 'point_of_interest', 'store', 'establishment']"
Fenrir Metal Madrid,40.4332871,-3.7146593,"['night_club', 'bar', 'point_of_interest', 'establishment']"
Moe's,40.4331412,-3.7150171,"['bar', 'point_of_interest', 'establishment']"
BAR RESTAURANT CAPRICHOS JJ,40.4344927,-3.715632,"['restaurant', 'bar', 'liquor_store', 'food', 'point_of_interest', 'store', 'establishment']"
DeLorean Pub Madrid,40.4344993,-3.7157815,"['bar', 'point_of_interest', 'establishment']"
La taberna de la Abuela,40.4348321,-3.7154152,"['bar', 'restaurant', 'food', 'point_of_interest', 'establishment']"
Bar El Gamo,40.4343537,-3.715762,"['bar', 'point_of_interest', 'establishment']"
Badulaque,40.4342401,-3.7154459,"['night_club', 'bar', 'point_of_interest', 'establishment']"
Rebel Yell Rock Bar,40.4342401,-3.7154459,"['bar', 'point_of_interest', 'establishment']"
Cervecería J.J.,40.434339,-3.715776999999999,"['bar', 'point_of_interest', 'establishment']"
Fenrir Bar,40.434163,-3.7152957,"['bar', 'point_of_interest', 'establishment']"
Kiruna,40.4342982,-3.7148915,"['cafe', 'bar', 'liquor_store', 'restaurant', 'food', 'point_of_interest', 'store', 'establishment']"
Sargantana Rock Bar,40.43429340000001,-3.714772599999999,"['bar', 'point_of_interest', 'establishment']"
Silicio,40.4347005,-3.7162808,"['bar', 'point_of_interest', 'establishment']"
La Ducha,40.43390089999999,-3.7153178,"['bar', 'point_of_interest', 'establishment']"
El Rincón De Las Tapas Gratis,40.43385939999999,-3.715472,"['bar', 'restaurant', 'food', 'point_of_interest', 'establishment']"
OHM,40.4341275,-3.7145064,"['bar', 'point_of_interest', 'establishment']"
UTATANE,40.4349648,-3.7144528,"['bar', 'bakery', 'cafe', 'liquor_store', 'restaurant', 'food', 'point_of_interest', 'store', 'establishment']"
Patatin Company,40.4354927,-3.715236300000001,"['bar', 'restaurant', 'food', 'point_of_interest', 'establishment']"
Tuareg Heavy Rock Bar,40.433743,-3.714861,"['bar', 'point_of_interest', 'establishment']"
The Sinner Metal Bar,40.43369509999999,-3.7146422,"['bar', 'point_of_interest', 'establishment']"
Mamarrachos Argüelles,40.43369509999999,-3.7146422,"['bar', 'point_of_interest', 'establishment']"
NARIZOTAS BAR,40.434355,-3.716919,"['bar', 'cafe', 'restaurant', 'food', 'point_of_interest', 'store', 'establishment']"
Cerveceria Retapas,40.4349911,-3.7168565,"['bar', 'point_of_interest', 'establishment']"
"+KCOPAS MKC, Moncloa",40.4348497,-3.7169514,"['bar', 'restaurant', 'food', 'point_of_interest', 'establishment']"
Bar Bukavu,40.43527779999999,-3.7141667,"['bar', 'night_club', 'cafe', 'restaurant', 'food', 'point_of_interest', 'store', 'establishment']"
Bar Discoteca Rock-Ola (Rockola),40.43335299999999,-3.7154348,"['bar', 'point_of_interest', 'establishment']"
Kubo King,40.43530519999999,-3.7167423,"['bar', 'restaurant', 'food', 'point_of_interest', 'establishment']"
Fiestaca,40.433343,-3.7151816,"['bar', 'point_of_interest', 'establishment']"
The Celtic Tiger,40.43409219999999,-3.7169931,"['bar', 'restaurant', 'food', 'point_of_interest', 'establishment']"
Misery's Pub,40.43398399999999,-3.716935099999999,"['night_club', 'bar', 'point_of_interest', 'establishment']"
Lambar,40.43529710000001,-3.716884500000001,"['bar', 'point_of_interest', 'establishment']"
ANALIUS Bar,40.433245,-3.7151904,"['bar', 'point_of_interest', 'establishment']"
El Barco,40.4333259,-3.7147257,"['bar', 'point_of_interest', 'establishment']"
Restaurante Cerveceria Casa Berdi,40.435932,-3.715540999999999,"['bar', 'restaurant', 'food', 'point_of_interest', 'establishment']"
Como en Chile Restaurante,40.4341267,-3.7137234,"['restaurant', 'bar', 'liquor_store', 'food', 'point_of_interest', 'store', 'establishment']"
Only VIP,40.43396499999999,-3.717094,"['night_club', 'bar', 'point_of_interest', 'establishment']"
Baby Bull,40.4348852,-3.7172395,"['bar', 'point_of_interest', 'establishment']"
El rincón de calamares,40.4350661,-3.7171843,"['bar', 'point_of_interest', 'establishment']"
BARMAN HOOKAH,40.4357339,-3.7165119,"['hair_care', 'night_club', 'cafe', 'bar', 'food', 'health', 'point_of_interest', 'store', 'establishment']"
Disaster CLUB,40.4357339,-3.7165119,"['bar', 'point_of_interest', 'establishment']"
Bar Rico,40.4342793,-3.713610299999999,"['restaurant', 'bar', 'food', 'point_of_interest', 'establishment']"
Graffiti Moncloa,40.4331835,-3.7160117,"['bar', 'restaurant', 'food', 'point_of_interest', 'establishment']"
El Chapandaz,40.4341881,-3.7175756,"['night_club', 'bar', 'point_of_interest', 'establishment']"
Cafetería El Macetero,40.4340589,-3.717752900000001,"['bar', 'point_of_interest', 'establishment']"
Penalti Lounge Bar Moncloa,40.435419,-3.717764,"['bar', 'restaurant', 'food', 'point_of_interest', 'establishment']"
Lizarrán,40.4345138,-3.7180533,"['bar', 'restaurant', 'food', 'point_of_interest', 'establishment']"
Taberna El Papelón,40.4342247,-3.7178414,"['bar', 'restaurant', 'food', 'point_of_interest', 'establishment']"
PORTER´S PUB KARAOKE,40.4352714,-3.7176885,"['night_club', 'bar', 'point_of_interest', 'establishment']"
Manzarina,40.4351931,-3.7188313,"['bar', 'point_of_interest', 'establishment']"
La Galería Copas,40.43519999999999,-3.717679,"['bar', 'point_of_interest', 'establishment']"
Cervecería 100 Montaditos,40.4346076,-3.7171977,"['bar', 'restaurant', 'food', 'point_of_interest', 'establishment']"
El Sitio,40.4354109,-3.7175474,"['meal_takeaway', 'bar', 'restaurant', 'food', 'point_of_interest', 'store', 'establishment']"
La Toná Arcipreste de Hita,40.433602,-3.7173888,"['bar', 'point_of_interest', 'establishment']"
Bar Anjupe,40.4343389,-3.7165951,"['bar', 'restaurant', 'food', 'point_of_interest', 'establishment']"
Masbebida S.L.,40.43412259999999,-3.7175695,"['bar', 'point_of_interest', 'establishment']"
Cervecería Costa Romana,40.4347023,-3.718085,"['bar', 'point_of_interest', 'establishment']"
La Cantina del Mercado de Abasto,40.43493469999999,-3.7182048,"['bar', 'point_of_interest', 'establishment']"
Parquing,40.4349613,-3.7180652,"['bar', 'point_of_interest', 'establishment']"
El Macetero,40.43400779999999,-3.7176862,"['bar', 'restaurant', 'food', 'point_of_interest', 'establishment']"
Baby Bull,40.4348852,-3.7172395,"['bar', 'point_of_interest', 'establishment']"
El rincón de calamares,40.4350661,-3.7171843,"['bar', 'point_of_interest', 'establishment']"
El Come Come de Moncloa,40.4338109,-3.7174322,"['bar', 'restaurant', 'food', 'point_of_interest', 'establishment']"
Sky Terrace Moncloa,40.4337546,-3.7175075,"['bar', 'point_of_interest', 'establishment']"
"+KCOPAS MKC, Moncloa",40.4348497,-3.7169514,"['bar', 'restaurant', 'food', 'point_of_interest', 'establishment']"
NARIZOTAS BAR,40.434355,-3.716919,"['bar', 'cafe', 'restaurant', 'food', 'point_of_interest', 'store', 'establishment']"
Only VIP,40.43396499999999,-3.717094,"['night_club', 'bar', 'point_of_interest', 'establishment']"
The Celtic Tiger,40.43409219999999,-3.7169931,"['bar', 'restaurant', 'food', 'point_of_interest', 'establishment']"
Mc Donnalds,40.4354741,-3.7190934,"['bar', 'point_of_interest', 'establishment']"
Cerveceria Retapas,40.4349911,-3.7168565,"['bar', 'point_of_interest', 'establishment']"
Misery's Pub,40.43398399999999,-3.716935099999999,"['night_club', 'bar', 'point_of_interest', 'establishment']"
Anjupe,40.4356349,-3.7176789,"['night_club', 'cafe', 'bar', 'food', 'point_of_interest', 'store', 'establishment']"
Lambar,40.43529710000001,-3.716884500000001,"['bar', 'point_of_interest', 'establishment']"
Kubo King,40.43530519999999,-3.7167423,"['bar', 'restaurant', 'food', 'point_of_interest', 'establishment']"
HEY Bar Moncloa,40.4335321,-3.7168396,"['bar', 'point_of_interest', 'establishment']"
Clamores,40.431118,-3.700957700000001,"['night_club', 'bar', 'point_of_interest', 'establishment']"
Fun House,40.4313726,-3.7011393,"['bar', 'point_of_interest', 'establishment']"
Méntrida,40.4324076,-3.701479399999999,"['bar', 'restaurant', 'food', 'point_of_interest', 'establishment']"
Malavita NIGHT BAR,40.431543,-3.702142,"['bar', 'point_of_interest', 'establishment']"
La Taberna del Loco Antonelli,40.43202,-3.7017772,"['bar', 'restaurant', 'food', 'point_of_interest', 'establishment']"
Old School Skaterock,40.4317855,-3.7013984,"['bar', 'restaurant', 'food', 'point_of_interest', 'store', 'establishment']"
Mandalay,40.4317248,-3.7008294,"['bar', 'point_of_interest', 'establishment']"
La Troupe,40.4316906,-3.700765,"['bar', 'point_of_interest', 'establishment']"
Discoteca Cardenal,40.4316159,-3.7020029,"['night_club', 'bar', 'point_of_interest', 'establishment']"
The Dash,40.4334982,-3.7006417,"['bar', 'point_of_interest', 'establishment']"
Francachela Erotic Love,40.4334982,-3.7006417,"['bar', 'point_of_interest', 'establishment']"
La Troupe Mixology Bar,40.4316906,-3.700765,"['night_club', 'bar', 'point_of_interest', 'establishment']"
CAFÉ BAR ARCO IRIS,40.4322482,-3.7011868,"['bar', 'liquor_store', 'restaurant', 'food', 'point_of_interest', 'store', 'establishment']"
Casa Puebla Olavide,40.4332569,-3.701032999999999,"['cafe', 'bar', 'restaurant', 'food', 'point_of_interest', 'establishment']"
Kibey II,40.4323745,-3.7014401,"['bar', 'point_of_interest', 'establishment']"
El Cuatro de Copas,40.4324694,-3.7015377,"['bar', 'point_of_interest', 'establishment']"
Bar Maracaná,40.43228079999999,-3.701133199999999,"['bar', 'point_of_interest', 'establishment']"
Joaquín González Del Río,40.4321663,-3.701293400000001,"['bar', 'point_of_interest', 'establishment']"
Energy Bar & Lounge,40.4324039,-3.7019108,"['bar', 'point_of_interest', 'establishment']"
Cerveceria Del Rio,40.431971,-3.701594000000001,"['bar', 'point_of_interest', 'establishment']"
La Manuela Olavide,40.43238789999999,-3.7021184,"['bar', 'restaurant', 'food', 'point_of_interest', 'establishment']"
Mesón El Pobre,40.4321353,-3.7020479,"['bar', 'point_of_interest', 'establishment']"
La ESQUINA DE BENJA,40.4324429,-3.7022642,"['bar', 'point_of_interest', 'establishment']"
Lili’s Ristorante & Grill,40.4331521,-3.7014461,"['restaurant', 'bar', 'food', 'point_of_interest', 'establishment']"
Bar AOIZ,40.432738,-3.7003783,"['bar', 'restaurant', 'food', 'point_of_interest', 'establishment']"
Taberna Irati,40.432738,-3.7003783,"['bar', 'restaurant', 'food', 'point_of_interest', 'establishment']"
Bar Asturias,40.43197899999999,-3.700476999999999,"['bar', 'restaurant', 'food', 'point_of_interest', 'establishment']"
La Taberna De Olavide,40.4327619,-3.700359100000001,"['bar', 'point_of_interest', 'establishment']"
Cervecería Carril,40.4328145,-3.700348700000001,"['bar', 'restaurant', 'food', 'point_of_interest', 'establishment']"
Ostras Pedrín Chamberí,40.4317511,-3.7022127,"['bar', 'point_of_interest', 'establishment']"
Bar La Oliva,40.433258,-3.700853999999999,"['bar', 'restaurant', 'food', 'point_of_interest', 'establishment']"
Cinco Y Acción,40.4313482,-3.701186600000001,"['bar', 'point_of_interest', 'establishment']"
Anubis Trafalgar,40.4316293,-3.7003164,"['bar', 'point_of_interest', 'establishment']"
Lead Bar,40.4315061,-3.700271199999999,"['bar', 'restaurant', 'food', 'point_of_interest', 'establishment']"
Tinto y en Botella,40.43237939999999,-3.7031182,"['bar', 'restaurant', 'food', 'point_of_interest', 'establishment']"
Cafe Bar Galicia,40.4335439,-3.700222,"['bar', 'point_of_interest', 'establishment']"
Fantasía En 5 S L,40.4310223,-3.7017959,"['bar', 'point_of_interest', 'establishment']"
A TOMAR X COPAS,40.4322823,-3.703298999999999,"['bar', 'point_of_interest', 'establishment']"
Kloster Bar and Restaurant,40.431034,-3.701984,"['bar', 'restaurant', 'food', 'point_of_interest', 'establishment']"
Local en venta,40.4338925,-3.701683199999999,"['bar', 'point_of_interest', 'establishment']"
La Nueva,40.43321569999999,-3.7052765,"['bar', 'restaurant', 'food', 'point_of_interest', 'establishment']"
La Taberna de Quevedo,40.43260780000001,-3.704140000000001,"['bar', 'restaurant', 'food', 'point_of_interest', 'establishment']"
ACEYTUNA,40.4325035,-3.704136300000001,"['bar', 'restaurant', 'food', 'point_of_interest', 'establishment']"
100 Montaditos,40.43260780000001,-3.704140000000001,"['bar', 'restaurant', 'food', 'point_of_interest', 'establishment']"
SAN BERNARDO 115 (Gastrobar),40.4327064,-3.7048862,"['bar', 'restaurant', 'food', 'point_of_interest', 'establishment']"
Tasty Poke Bar,40.4329338,-3.7048276,"['meal_delivery', 'park', 'bar', 'restaurant', 'food', 'point_of_interest', 'establishment']"
Vinos Baco,40.4327456,-3.7048665,"['bar', 'liquor_store', 'food', 'point_of_interest', 'store', 'establishment']"
Hoces del Duratón II,40.4324662,-3.7045615,"['bar', 'restaurant', 'food', 'point_of_interest', 'establishment']"
SALÓN DE JUEGOS MADRID-15,40.4334824,-3.7051735,"['bar', 'point_of_interest', 'establishment']"
GASTROVISION SL,40.43267999999999,-3.70487,"['bar', 'point_of_interest', 'establishment']"
MANDIOCA BAR LOUNGE,40.4320365,-3.7047274,"['bar', 'restaurant', 'food', 'point_of_interest', 'establishment']"
GASTROBAR,40.43265699999999,-3.7050012,"['bar', 'restaurant', 'food', 'point_of_interest', 'establishment']"
Bar Restaurante La Galerna,40.43265699999999,-3.7050012,"['bar', 'restaurant', 'food', 'point_of_interest', 'establishment']"
Borpabanglasl,40.43300380000001,-3.704793800000001,"['bar', 'restaurant', 'food', 'point_of_interest', 'establishment']"
A TOMAR X COPAS,40.4322823,-3.703298999999999,"['bar', 'point_of_interest', 'establishment']"
Tinto y en Botella,40.43237939999999,-3.7031182,"['bar', 'restaurant', 'food', 'point_of_interest', 'establishment']"
La Dorrego Madrid,40.431528,-3.7039727,"['meal_delivery', 'bar', 'food', 'point_of_interest', 'establishment']"
La ESQUINA DE BENJA,40.4324429,-3.7022642,"['bar', 'point_of_interest', 'establishment']"
El seiscientos,40.43186619999999,-3.706850399999999,"['bar', 'point_of_interest', 'establishment']"
Salon De Juegos Kasino Bar,40.43373520000001,-3.7062486,"['bar', 'point_of_interest', 'establishment']"
En Guay Sí Pizza Bar,40.4317926,-3.711180499999999,"['bar', 'restaurant', 'food', 'point_of_interest', 'establishment']"
Nolita Club,40.4311829,-3.709533900000001,"['bar', 'point_of_interest', 'establishment']"
La Pepa Maluca,40.432112,-3.71029,"['bar', 'restaurant', 'food', 'point_of_interest', 'establishment']"
Moreira Lounge Club,40.4312406,-3.7095207,"['bar', 'point_of_interest', 'establishment']"
Restaurante Los Ángeles,40.4318675,-3.7115657,"['bar', 'restaurant', 'food', 'point_of_interest', 'establishment']"
Cafe Pub GARDEN,40.4313125,-3.7090828,"['cafe', 'bar', 'restaurant', 'food', 'point_of_interest', 'store', 'establishment']"
La Zamorana Madrid,40.4320025,-3.7105515,"['restaurant', 'bar', 'food', 'point_of_interest', 'establishment']"
Taberna La Mina,40.4327484,-3.7096,"['cafe', 'bar', 'restaurant', 'food', 'point_of_interest', 'establishment']"
Restaurante KRUG,40.432974,-3.709705,"['bar', 'restaurant', 'food', 'point_of_interest', 'establishment']"
RESTAURANTELAZAMORANA,40.4320769,-3.7107101,"['restaurant', 'bar', 'liquor_store', 'food', 'point_of_interest', 'store', 'establishment']"
Bar Sánchez,40.4317222,-3.710299400000001,"['bar', 'point_of_interest', 'establishment']"
TABERNA GARNICA,40.433224,-3.7102,"['bar', 'restaurant', 'food', 'point_of_interest', 'establishment']"
Pub Cafe Volare,40.4332079,-3.7104815,"['bar', 'point_of_interest', 'establishment']"
Sala Blue,40.4314791,-3.7095207,"['bar', 'point_of_interest', 'establishment']"
Cristapas,40.4334312,-3.7102204,"['bar', 'restaurant', 'food', 'point_of_interest', 'establishment']"
GARDEN PUB,40.4314892,-3.7092035,"['bar', 'liquor_store', 'restaurant', 'food', 'point_of_interest', 'store', 'establishment']"
Taberna de Lea,40.4335385,-3.7100953,"['bar', 'restaurant', 'food', 'point_of_interest', 'establishment']"
Bar Salvador,40.4314705,-3.710586100000001,"['bar', 'point_of_interest', 'establishment']"
Cafetería Tormes,40.43337040000001,-3.708869500000001,"['bar', 'restaurant', 'food', 'point_of_interest', 'establishment']"
Euphoria Club,40.4312406,-3.7095207,"['night_club', 'bar', 'point_of_interest', 'establishment']"
Convivium Gastrobar Italiano,40.4325503,-3.7114436,"['bar', 'restaurant', 'food', 'point_of_interest', 'establishment']"
FUOKO,40.4310417,-3.7101274,"['restaurant', 'bakery', 'bar', 'liquor_store', 'food', 'point_of_interest', 'store', 'establishment']"
Bocatas lovers,40.4338664,-3.709441400000001,"['bar', 'liquor_store', 'restaurant', 'food', 'point_of_interest', 'store', 'establishment']"
Montaditos Cervecería Family,40.4325133,-3.71174,"['bar', 'point_of_interest', 'establishment']"
Restaurante Alcobilla,40.4333846,-3.7134306,"['bar', 'restaurant', 'food', 'point_of_interest', 'establishment']"
En Guay Sí Pizza Bar,40.4317926,-3.711180499999999,"['bar', 'restaurant', 'food', 'point_of_interest', 'establishment']"
Restaurante Los Ángeles,40.4318675,-3.7115657,"['bar', 'restaurant', 'food', 'point_of_interest', 'establishment']"
RubiaGallega,40.4321041,-3.712422900000001,"['bar', 'restaurant', 'food', 'point_of_interest', 'establishment']"
Bar Los Chicos,40.4330861,-3.7134545,"['bar', 'point_of_interest', 'establishment']"
El Bar De Moe's,40.4321077,-3.7124115,"['bar', 'point_of_interest', 'establishment']"
Santa canela,40.4324373,-3.7132226,"['bar', 'liquor_store', 'restaurant', 'food', 'point_of_interest', 'store', 'establishment']"
BACO CLUB,40.4328895,-3.7120227,"['bar', 'point_of_interest', 'establishment']"
Purple Rock & Metal Bar,40.4328825,-3.7120019,"['bar', 'point_of_interest', 'establishment']"
El Gordo y El Flaco,40.4328728,-3.7119833,"['night_club', 'bar', 'point_of_interest', 'establishment']"
Soda Bar,40.4318436,-3.7128558,"['bar', 'restaurant', 'food', 'point_of_interest', 'establishment']"
LA COETÁNEA,40.4322992,-3.7117886,"['restaurant', 'bar', 'liquor_store', 'food', 'point_of_interest', 'store', 'establishment']"
Montaditos Cervecería Family,40.4325133,-3.71174,"['bar', 'point_of_interest', 'establishment']"
La Lorena,40.43184520000001,-3.7131059,"['bar', 'restaurant', 'food', 'point_of_interest', 'establishment']"
Convivium Gastrobar Italiano,40.4325503,-3.7114436,"['bar', 'restaurant', 'food', 'point_of_interest', 'establishment']"
Bar Leonés,40.43166300000001,-3.713287,"['cafe', 'bar', 'restaurant', 'food', 'point_of_interest', 'establishment']"
La Tremolina,40.4330806,-3.7136689,"['bar', 'restaurant', 'food', 'point_of_interest', 'establishment']"
BAR,40.431398,-3.7129967,"['bar', 'point_of_interest', 'establishment']"
Bar Cervecería El Greco,40.4316485,-3.711650700000001,"['bar', 'restaurant', 'food', 'point_of_interest', 'establishment']"
Bar Sidreria Leo's,40.4312441,-3.7130883,"['bar', 'point_of_interest', 'establishment']"
AL DENTE,40.4312882,-3.7132983,"['restaurant', 'cafe', 'bar', 'liquor_store', 'food', 'point_of_interest', 'store', 'establishment']"
Cara Y Cruz,40.4331152,-3.7141888,"['bar', 'point_of_interest', 'establishment']"
Viyuela Mambrilla Teófilo,40.4320396,-3.714357799999999,"['bar', 'point_of_interest', 'establishment']"
Bar Café Doctor,40.431118,-3.713326899999999,"['bar', 'point_of_interest', 'establishment']"
Bar Bacchus,40.433147,-3.714934999999999,"['night_club', 'bar', 'point_of_interest', 'establishment']"
LA GUADAÑA COSMICA,40.4319666,-3.714774100000001,"['bar', 'point_of_interest', 'establishment']"
Bar Jimmy comida filipina,40.432464,-3.7169253,"['bar', 'restaurant', 'food', 'point_of_interest', 'establishment']"
Moe's,40.4331412,-3.7150171,"['bar', 'point_of_interest', 'establishment']"
Primera Toma,40.43326109999999,-3.7155427,"['bar', 'point_of_interest', 'establishment']"
Bar Cervecería Las Bravas,40.43317709999999,-3.716230100000001,"['bar', 'restaurant', 'food', 'point_of_interest', 'establishment']"
Fenrir Metal Madrid,40.4332871,-3.7146593,"['night_club', 'bar', 'point_of_interest', 'establishment']"
Bastard Heavy Rock Pub,40.433705,-3.715023,"['bar', 'point_of_interest', 'establishment']"
Metemetres,40.4337554,-3.7153887,"['night_club', 'bar', 'point_of_interest', 'establishment']"
El Torito,40.4319421,-3.7150073,"['bar', 'restaurant', 'food', 'point_of_interest', 'establishment']"
Madriz-Madrid Rock Bar,40.4331491,-3.7149378,"['bar', 'point_of_interest', 'establishment']"
ANALIUS Bar,40.433245,-3.7151904,"['bar', 'point_of_interest', 'establishment']"
Graffiti Moncloa,40.4331835,-3.7160117,"['bar', 'restaurant', 'food', 'point_of_interest', 'establishment']"
Bar Discoteca Rock-Ola (Rockola),40.43335299999999,-3.7154348,"['bar', 'point_of_interest', 'establishment']"
Fiestaca,40.433343,-3.7151816,"['bar', 'point_of_interest', 'establishment']"
Viyuela Mambrilla Teófilo,40.4320396,-3.714357799999999,"['bar', 'point_of_interest', 'establishment']"
Bar El Nichi,40.43182480000001,-3.716350199999999,"['bar', 'point_of_interest', 'establishment']"
El Barco,40.4333259,-3.7147257,"['bar', 'point_of_interest', 'establishment']"
Bar Argos,40.4329249,-3.7166803,"['bar', 'point_of_interest', 'establishment']"
Bar la Esmeralda,40.43185389999999,-3.716730399999999,"['bar', 'point_of_interest', 'establishment']"
Cara Y Cruz,40.4331152,-3.7141888,"['bar', 'point_of_interest', 'establishment']"
Rosado,40.4330386,-3.716987999999999,"['bar', 'point_of_interest', 'establishment']"
Tuareg Heavy Rock Bar,40.433743,-3.714861,"['bar', 'point_of_interest', 'establishment']"
The Sinner Metal Bar,40.43369509999999,-3.7146422,"['bar', 'point_of_interest', 'establishment']"
Mamarrachos Argüelles,40.43369509999999,-3.7146422,"['bar', 'point_of_interest', 'establishment']"
Tapas 44,40.4324167,-3.7173528,"['bar', 'restaurant', 'food', 'point_of_interest', 'establishment']"
El Rincón De Las Tapas Gratis,40.43385939999999,-3.715472,"['bar', 'restaurant', 'food', 'point_of_interest', 'establishment']"
Jardín Cervecería Alhambra,40.4312773,-3.7164394,"['bar', 'restaurant', 'food', 'point_of_interest', 'establishment']"
La Ducha,40.43390089999999,-3.7153178,"['bar', 'point_of_interest', 'establishment']"
Kactus,40.43346209999999,-3.716872699999999,"['bar', 'point_of_interest', 'establishment']"
La Tremolina,40.4330806,-3.7136689,"['bar', 'restaurant', 'food', 'point_of_interest', 'establishment']"
Restaurante Manolo 1934,40.4326352,-3.717991,"['cafe', 'bar', 'restaurant', 'food', 'point_of_interest', 'store', 'establishment']"
Restaurante El Tera,40.43205199999999,-3.718384999999999,"['bar', 'restaurant', 'food', 'point_of_interest', 'establishment']"
Bar Jimmy comida filipina,40.432464,-3.7169253,"['bar', 'restaurant', 'food', 'point_of_interest', 'establishment']"
Pub Single,40.43189780000001,-3.7188184,"['night_club', 'bar', 'point_of_interest', 'establishment']"
El Labrador,40.4313861,-3.7178528,"['bar', 'point_of_interest', 'establishment']"
La Toná Arcipreste de Hita,40.433602,-3.7173888,"['bar', 'point_of_interest', 'establishment']"
"Baghdaserian, Roumel",40.4329559,-3.7173911,"['bar', 'point_of_interest', 'establishment']"
Tapas 44,40.4324167,-3.7173528,"['bar', 'restaurant', 'food', 'point_of_interest', 'establishment']"
Café - Bar Finisterre,40.4320386,-3.7179101,"['night_club', 'cafe', 'bar', 'restaurant', 'food', 'point_of_interest', 'store', 'establishment']"
Las Tres Carabelas,40.43199889999999,-3.7180369,"['bar', 'point_of_interest', 'establishment']"
D`Kñas Bar de Tapas,40.43199600000001,-3.717992,"['bar', 'restaurant', 'food', 'point_of_interest', 'establishment']"
La Bien Venida de Moncloa,40.4318567,-3.718386,"['bar', 'restaurant', 'food', 'point_of_interest', 'establishment']"
Bar Restaurant DURATON,40.4321953,-3.719108599999999,"['restaurant', 'bar', 'food', 'point_of_interest', 'establishment']"
"""Siguaraya"" Con Sabor Cubano",40.4314482,-3.718236100000001,"['bar', 'point_of_interest', 'establishment']"
BarShan,40.4313257,-3.718320299999999,"['bar', 'point_of_interest', 'establishment']"
Rosado,40.4330386,-3.716987999999999,"['bar', 'point_of_interest', 'establishment']"
Bar Argos,40.4329249,-3.7166803,"['bar', 'point_of_interest', 'establishment']"
Bar la Esmeralda,40.43185389999999,-3.716730399999999,"['bar', 'point_of_interest', 'establishment']"
Cervecería Norte,40.4318106,-3.7198945,"['bar', 'point_of_interest', 'establishment']"
Sky Terrace Moncloa,40.4337546,-3.7175075,"['bar', 'point_of_interest', 'establishment']"
Kactus,40.43346209999999,-3.716872699999999,"['bar', 'point_of_interest', 'establishment']"
El Come Come de Moncloa,40.4338109,-3.7174322,"['bar', 'restaurant', 'food', 'point_of_interest', 'establishment']"
Cervecería Norte,40.4318106,-3.7198945,"['bar', 'point_of_interest', 'establishment']"
Restaurante Hispano-Italiano,40.4311909,-3.7219767,"['bar', 'restaurant', 'food', 'point_of_interest', 'establishment']"
Bar Restaurant DURATON,40.4321953,-3.719108599999999,"['restaurant', 'bar', 'food', 'point_of_interest', 'establishment']"
Ferraz 100,40.4311111,-3.7219444,"['restaurant', 'bar', 'food', 'point_of_interest', 'establishment']"
Cuatro Caminos,40.4468479,-3.702990099999999,"['bus_station', 'transit_station', 'point_of_interest', 'establishment']"
Cuatro Caminos,40.44733,-3.70364,"['bus_station', 'transit_station', 'point_of_interest', 'establishment']"
Fernández Villaverde - Maudes,40.4468429,-3.7006596,"['bus_station', 'transit_station', 'point_of_interest', 'establishment']"
Alvarado,40.4488865,-3.703815,"['bus_station', 'transit_station', 'point_of_interest', 'establishment']"
Alvarado,40.4489856,-3.7035361,"['bus_station', 'transit_station', 'point_of_interest', 'establishment']"
Metro Ríos Rosas,40.4418037,-3.701597700000001,"['bus_station', 'transit_station', 'point_of_interest', 'establishment']"
Metro Ríos Rosas,40.4420837,-3.701434399999999,"['bus_station', 'transit_station', 'point_of_interest', 'establishment']"
Canal,40.43858280000001,-3.703778599999999,"['bus_station', 'transit_station', 'point_of_interest', 'establishment']"
Glorieta Álvarez De Castro,40.4366302,-3.702640999999999,"['bus_station', 'transit_station', 'point_of_interest', 'establishment']"
Glorieta Álvarez De Castro,40.4365682,-3.7027778,"['bus_station', 'transit_station', 'point_of_interest', 'establishment']"
José Abascal - Santa Engracia,40.43842,-3.700659999999999,"['bus_station', 'transit_station', 'point_of_interest', 'establishment']"
Santa Engracia - Bretón De Los Herreros,40.4394326,-3.7005711,"['bus_station', 'transit_station', 'point_of_interest', 'establishment']"
Álvarez De Castro - Eloy Gonzalo,40.43513720000001,-3.701946800000001,"['bus_station', 'transit_station', 'point_of_interest', 'establishment']"
Galileo,40.43509,-3.70904,"['bus_station', 'transit_station', 'point_of_interest', 'establishment']"
Guzmán El Bueno - Fernández De Los Ríos,40.4358039,-3.713179799999999,"['bus_station', 'transit_station', 'point_of_interest', 'establishment']"
Cristo Rey,40.4392802,-3.7159767,"['bus_station', 'transit_station', 'point_of_interest', 'establishment']"
Cristo Rey,40.4384677,-3.7178931,"['bus_station', 'transit_station', 'point_of_interest', 'establishment']"
Cristo Rey,40.4384677,-3.7178931,"['bus_station', 'transit_station', 'point_of_interest', 'establishment']"
Quevedo,40.4329724,-3.7040924,"['bus_station', 'transit_station', 'point_of_interest', 'establishment']"
Bravo Murillo - Quevedo,40.43476,-3.70444,"['bus_station', 'transit_station', 'point_of_interest', 'establishment']"
Álvarez De Castro - Eloy Gonzalo,40.43513720000001,-3.701946800000001,"['bus_station', 'transit_station', 'point_of_interest', 'establishment']"
Fuencarral - Alburquerque,40.4315428,-3.7034787,"['bus_station', 'transit_station', 'point_of_interest', 'establishment']"
Fuencarral - Alburquerque,40.4313911,-3.703267599999999,"['bus_station', 'transit_station', 'point_of_interest', 'establishment']"
Galileo,40.43509,-3.70904,"['bus_station', 'transit_station', 'point_of_interest', 'establishment']"
Guzmán El Bueno - Fernández De Los Ríos,40.4358039,-3.713179799999999,"['bus_station', 'transit_station', 'point_of_interest', 'establishment']"
Altamirano,40.4321458,-3.717184700000001,"['bus_station', 'transit_station', 'point_of_interest', 'establishment']"
Moncloa,40.4331899,-3.7176932,"['bus_station', 'transit_station', 'point_of_interest', 'establishment']"
Moncloa,40.4338913,-3.7188625,"['bus_station', 'transit_station', 'point_of_interest', 'establishment']"
Princesa-moncloa,40.4335617,-3.718605299999999,"['bus_station', 'transit_station', 'point_of_interest', 'establishment']"
Moncloa,40.43443549999999,-3.7192518,"['bus_station', 'transit_station', 'point_of_interest', 'establishment']"
Intercambiador Moncloa,40.43444119999999,-3.7192391,"['bus_station', 'transit_station', 'point_of_interest', 'establishment']"
Moncloa,40.4344918,-3.7188724,"['bus_station', 'transit_station', 'point_of_interest', 'establishment']"
Madrid-Moret 1,40.4343416,-3.7207168,"['bus_station', 'transit_station', 'point_of_interest', 'establishment']"
"Madrid, Madrid (Moncloa)",40.434705,-3.719452,"['bus_station', 'transit_station', 'point_of_interest', 'establishment']"
Moncloa,40.4331899,-3.7176932,"['bus_station', 'transit_station', 'point_of_interest', 'establishment']"
Altamirano,40.4321458,-3.717184700000001,"['bus_station', 'transit_station', 'point_of_interest', 'establishment']"
"""La Esquinita de Treviño"" Cafetería - Cervecería",40.44656,-3.701993,"['cafe', 'bar', 'food', 'point_of_interest', 'establishment']"
Nurielle,40.4470797,-3.703242800000001,"['cafe', 'food', 'point_of_interest', 'establishment']"
Cafetería Reina Victoria,40.447154,-3.7051909,"['cafe', 'restaurant', 'food', 'point_of_interest', 'store', 'establishment']"
Lizarran,40.4459976,-3.7041846,"['cafe', 'bar', 'restaurant', 'food', 'point_of_interest', 'establishment']"
Nurielle,40.4470797,-3.703242800000001,"['cafe', 'food', 'point_of_interest', 'establishment']"
Cafeterías Bravo Murillo,40.4481584,-3.7039853,"['restaurant', 'cafe', 'food', 'point_of_interest', 'establishment']"
Bakery Cafe Audrey,40.44668789999999,-3.704605900000001,"['bakery', 'cafe', 'food', 'point_of_interest', 'store', 'establishment']"
Cafetería El Dulce de leche,40.4465075,-3.7046538,"['cafe', 'food', 'point_of_interest', 'establishment']"
Cafetería Reina Victoria,40.447154,-3.7051909,"['cafe', 'restaurant', 'food', 'point_of_interest', 'store', 'establishment']"
Albie S.a.,40.44712649999999,-3.7078984,"['cafe', 'food', 'point_of_interest', 'establishment']"
Cafe Bar El Tesoro,40.4474201,-3.7069329,"['cafe', 'food', 'point_of_interest', 'establishment']"
cafe bar el tesoro,40.4474996,-3.706834599999999,"['cafe', 'food', 'point_of_interest', 'establishment']"
Bar SANTA ELENA,40.4474265,-3.7107534,"['bar', 'cafe', 'food', 'point_of_interest', 'establishment']"
Epic Board Game Cafe,40.44724209999999,-3.7106795,"['cafe', 'bar', 'restaurant', 'food', 'point_of_interest', 'store', 'establishment']"
Albie S.a.,40.44712649999999,-3.7078984,"['cafe', 'food', 'point_of_interest', 'establishment']"
Cafetería El Cantaro,40.44724209999999,-3.7106795,"['bar', 'cafe', 'liquor_store', 'restaurant', 'food', 'point_of_interest', 'store', 'establishment']"
Cafeteria La Llama,40.446449,-3.7105978,"['cafe', 'food', 'point_of_interest', 'store', 'establishment']"
"Bar Cafeteria ""Manduka""",40.4463654,-3.711163400000001,"['bar', 'cafe', 'food', 'point_of_interest', 'store', 'establishment']"
Cafeteria-Restaurante Metropolitano,40.4467692,-3.711657200000001,"['restaurant', 'cafe', 'food', 'point_of_interest', 'store', 'establishment']"
Bar Gabaldon,40.4466963,-3.7123144,"['cafe', 'restaurant', 'food', 'point_of_interest', 'store', 'establishment']"
Bar SANTA ELENA,40.4474265,-3.7107534,"['bar', 'cafe', 'food', 'point_of_interest', 'establishment']"
Kaffee Metropolitano,40.44823499999999,-3.7127043,"['cafe', 'food', 'point_of_interest', 'establishment']"
Epic Board Game Cafe,40.44724209999999,-3.7106795,"['cafe', 'bar', 'restaurant', 'food', 'point_of_interest', 'store', 'establishment']"
Cafetería Cervecería Los Estudiantes,40.44683850000001,-3.712652800000001,"['cafe', 'bar', 'restaurant', 'food', 'point_of_interest', 'store', 'establishment']"
Pan de Oli Panadería,40.4468036,-3.7125611,"['cafe', 'food', 'point_of_interest', 'establishment']"
PAN DE OLI PANADERÍA CAFETERÍA,40.4468036,-3.7125611,"['cafe', 'food', 'point_of_interest', 'establishment']"
Cafeteria-Restaurante Metropolitano,40.4467692,-3.711657200000001,"['restaurant', 'cafe', 'food', 'point_of_interest', 'store', 'establishment']"
"Bar Cafeteria ""Manduka""",40.4463654,-3.711163400000001,"['bar', 'cafe', 'food', 'point_of_interest', 'store', 'establishment']"
Cafetería El Cantaro,40.44724209999999,-3.7106795,"['bar', 'cafe', 'liquor_store', 'restaurant', 'food', 'point_of_interest', 'store', 'establishment']"
B&O,40.4477064,-3.7146509,"['cafe', 'food', 'point_of_interest', 'store', 'establishment']"
D Tranki'S Aptc,40.44820319999999,-3.7159438,"['cafe', 'food', 'point_of_interest', 'establishment']"
Jesús Montoro Martín,40.4445166,-3.7014123,"['cafe', 'food', 'point_of_interest', 'establishment']"
Tomás Rodríguez Pascual,40.4454409,-3.702240800000001,"['cafe', 'food', 'point_of_interest', 'establishment']"
Cafetería Neyser,40.44560680000001,-3.7020875,"['cafe', 'food', 'point_of_interest', 'establishment']"
stopango,40.4455481,-3.7003198,"['cafe', 'food', 'point_of_interest', 'establishment']"
cafeteria panaderia panes selectos,40.4455871,-3.703135199999999,"['cafe', 'food', 'point_of_interest', 'establishment']"
Lizarran,40.4459976,-3.7041846,"['cafe', 'bar', 'restaurant', 'food', 'point_of_interest', 'establishment']"
cafeteria panaderia panes selectos,40.4455871,-3.703135199999999,"['cafe', 'food', 'point_of_interest', 'establishment']"
Cafetería El Dulce de leche,40.4465075,-3.7046538,"['cafe', 'food', 'point_of_interest', 'establishment']"
Cafeteria La Llama,40.446449,-3.7105978,"['cafe', 'food', 'point_of_interest', 'store', 'establishment']"
So Natural,40.4422222,-3.701666699999999,"['cafe', 'food', 'point_of_interest', 'store', 'establishment']"
Cafetería Minas,40.44269179999999,-3.7005373,"['restaurant', 'cafe', 'food', 'point_of_interest', 'store', 'establishment']"
CAFETERÍA STIVENSON,40.4429999,-3.7019799,"['cafe', 'food', 'point_of_interest', 'store', 'establishment']"
Bar Cafetería La Portería,40.4434773,-3.700678900000001,"['cafe', 'food', 'point_of_interest', 'establishment']"
La Taberna De Carlos Café-Lounge,40.4437049,-3.7006812,"['cafe', 'food', 'point_of_interest', 'establishment']"
DECUATRO STORE,40.44181319999999,-3.702318099999999,"['cafe', 'food', 'point_of_interest', 'store', 'establishment']"
Cafetería El Flow Bar,40.4431374,-3.6995876,"['cafe', 'food', 'point_of_interest', 'establishment']"
